<?xml version="1.0" encoding="UTF-8" standalone="no"?>
<benefits>
<benefit id="1">
<name>NC Královo Pole</name>
<cardType>ISIC</cardType>
<cardType>SCHOLAR</cardType>
<web>www.nckrpole.cz</web>
<email/>
<phone>+420 541 245 541</phone>
<address>
<city>Brno</city>
<street>Cimburkova</street>
<premise>###</premise>
<streetNumber>4</streetNumber>
<latitude>49.21701</latitude>
<longtitude>16.605312</longtitude>
<gpsStatus>OK</gpsStatus>
<coor>true</coor>
</address>
</benefit>
<benefit id="2">
<name>Lokál U Bílé Kuželky</name>
<cardType>ISIC</cardType>
<web>www.lokal.cz</web>
<email>kuzelka@ambi.cz</email>
<phone>257 212 014</phone>
<address>
<city>Praha</city>
<street>Míšeňská</street>
<premise>66</premise>
<streetNumber>12</streetNumber>
<latitude>50.08764</latitude>
<longtitude>14.407544</longtitude>
<gpsStatus>OK</gpsStatus>
<coor>true</coor>
</address>
</benefit>
<benefit id="3">
<name>Lokál Dlouhá</name>
<cardType>ISIC</cardType>
<web>www.lokal.cz</web>
<email>lokal@ambi.cz</email>
<phone>222 316 265</phone>
<address>
<city>Hl.m. Praha</city>
<street>Dlouhá</street>
<premise>###</premise>
<streetNumber>33</streetNumber>
<latitude>50.090706</latitude>
<longtitude>14.425885</longtitude>
<gpsStatus>OK</gpsStatus>
<coor>true</coor>
</address>
</benefit>
<benefit id="4">
<name>Lokál Hamburk</name>
<cardType>ISIC</cardType>
<web>www.lokal.cz</web>
<email>hamburk@ambi.cz</email>
<phone>222 310 361</phone>
<address>
<city>Praha</city>
<street>Sokolovská</street>
<premise>81</premise>
<streetNumber>55</streetNumber>
<latitude>50.093147</latitude>
<longtitude>14.446833</longtitude>
<gpsStatus>OK</gpsStatus>
<coor>true</coor>
</address>
</benefit>
<benefit id="5">
<name>Lokál U Zavadilů</name>
<cardType>ISIC</cardType>
<web>www.lokal.cz</web>
<email>uzavadilu@ambi.cz</email>
<phone>244 467 448</phone>
<address>
<city>Praha</city>
<street>K Verneráku</street>
<premise>70</premise>
<streetNumber>1</streetNumber>
<latitude>50.01421</latitude>
<longtitude>14.4857235</longtitude>
<gpsStatus>OK</gpsStatus>
<coor>true</coor>
</address>
</benefit>
<benefit id="6">
<name>Lokál Nad Stromovkou</name>
<cardType>ISIC</cardType>
<web>www.lokal.cz</web>
<email>nadstromovkou@ambi.cz</email>
<phone>220 912 319</phone>
<address>
<city>Praha</city>
<street>Nad Královskou oborou</street>
<premise>232</premise>
<streetNumber>31</streetNumber>
<latitude>50.10309</latitude>
<longtitude>14.418264</longtitude>
<gpsStatus>OK</gpsStatus>
<coor>true</coor>
</address>
</benefit>
<benefit id="7">
<name>Už jsme doma - kavárna</name>
<cardType>ISIC</cardType>
<cardType>ITIC</cardType>
<cardType>IYTC</cardType>
<cardType>SCHOLAR</cardType>
<web>www.uzjstedoma.cz</web>
<email>romek.hanzlik@gmail.com</email>
<phone>736 606 666</phone>
<address>
<city>Praha</city>
<street>Uralská</street>
<premise>###</premise>
<streetNumber>6</streetNumber>
<latitude>50.102108</latitude>
<longtitude>14.401911</longtitude>
<gpsStatus>OK</gpsStatus>
<coor>true</coor>
</address>
</benefit>
<benefit id="8">
<name>Sartor - hedvábný obchod</name>
<cardType>ISIC</cardType>
<cardType>ITIC</cardType>
<cardType>IYTC</cardType>
<cardType>SCHOLAR</cardType>
<web>www.sartor.cz</web>
<email>sartor@sartor.cz</email>
<phone>777 511 114</phone>
<address>
<city>Praha</city>
<street>Karmelitská</street>
<premise>###</premise>
<streetNumber>14</streetNumber>
<latitude>50.085907</latitude>
<longtitude>14.404277</longtitude>
<gpsStatus>OK</gpsStatus>
<coor>true</coor>
</address>
</benefit>
<benefit id="9">
<name>Optik-centrum</name>
<cardType>ISIC</cardType>
<cardType>ITIC</cardType>
<cardType>IYTC</cardType>
<cardType>SCHOLAR</cardType>
<web>www.optik-centrum.cz</web>
<email>info@optik-centrum.cz</email>
<phone>222583399</phone>
<address>
<city>Praha</city>
<street>Jeseniova</street>
<premise>###</premise>
<streetNumber>93</streetNumber>
<latitude>50.088554</latitude>
<longtitude>14.469195</longtitude>
<gpsStatus>OK</gpsStatus>
<coor>true</coor>
</address>
</benefit>
<benefit id="10">
<name>design SUPERMARKET</name>
<cardType>ISIC</cardType>
<web>http://www.designsupermarket.cz/</web>
<email/>
<phone/>
<address>
<city>Praha</city>
<street>###</street>
<premise>###</premise>
<streetNumber>###</streetNumber>
<latitude>50.07554</latitude>
<longtitude>14.4378</longtitude>
<gpsStatus>OK</gpsStatus>
<coor>true</coor>
</address>
</benefit>
<benefit id="11">
<name>TEPfaktor</name>
<cardType>ISIC</cardType>
<cardType>ITIC</cardType>
<cardType>IYTC</cardType>
<cardType>SCHOLAR</cardType>
<web>www.tepfaktor.cz</web>
<email>info@tepfaktor.cz</email>
<phone>+420 777 000 927</phone>
<address>
<city>Chotilsko</city>
<street>###</street>
<premise>###</premise>
<streetNumber>###</streetNumber>
<latitude>49.77049</latitude>
<longtitude>14.352486</longtitude>
<gpsStatus>OK</gpsStatus>
<coor>true</coor>
</address>
</benefit>
<benefit id="12">
<name>ALOHA BAR PRAHA</name>
<cardType>ISIC</cardType>
<cardType>ITIC</cardType>
<cardType>IYTC</cardType>
<cardType>SCHOLAR</cardType>
<web>www.alohapraha.cz</web>
<email>info@alohapraha.cz</email>
<phone>+420 602 251 392</phone>
<address>
<city>Praha</city>
<street>Dušní</street>
<premise>###</premise>
<streetNumber>1</streetNumber>
<latitude>50.088856</latitude>
<longtitude>14.42162</longtitude>
<gpsStatus>OK</gpsStatus>
<coor>true</coor>
</address>
</benefit>
<benefit id="13">
<name>mojekolo.cz</name>
<cardType>ISIC</cardType>
<cardType>ITIC</cardType>
<cardType>IYTC</cardType>
<cardType>SCHOLAR</cardType>
<web>www.mojekolo.cz</web>
<email>brno@mojekolo.cz</email>
<phone>595532419</phone>
<address>
<city>Brno</city>
<street>Nové sady</street>
<premise>591</premise>
<streetNumber>24</streetNumber>
<latitude>49.18724</latitude>
<longtitude>16.604994</longtitude>
<gpsStatus>OK</gpsStatus>
<coor>true</coor>
</address>
</benefit>
<benefit id="14">
<name>Premiere Cinemas Hostivař</name>
<cardType>ISIC</cardType>
<web>http://www.premierecinemas.cz/</web>
<email>ales.smetana@premierecinemas.cz</email>
<phone>+420 728 682 909</phone>
<address>
<city>Praha</city>
<street>Švehlova</street>
<premise>1391</premise>
<streetNumber>32</streetNumber>
<latitude>50.05328</latitude>
<longtitude>14.517188</longtitude>
<gpsStatus>OK</gpsStatus>
<coor>true</coor>
</address>
</benefit>
<benefit id="15">
<name>Městská kina Uherské Hradiště</name>
<cardType>ISIC</cardType>
<cardType>SCHOLAR</cardType>
<web>www.mkuh.cz</web>
<email>info@mkuh.cz</email>
<phone>576 514 200, 576 514 300</phone>
<address>
<city>Uherske Hradiste</city>
<street>náměstí Míru</street>
<premise>951</premise>
<streetNumber>###</streetNumber>
<latitude>49.067444</latitude>
<longtitude>17.468843</longtitude>
<gpsStatus>OK</gpsStatus>
<coor>true</coor>
</address>
</benefit>
<benefit id="16">
<name>Caffe Italia</name>
<cardType>ISIC</cardType>
<cardType>ITIC</cardType>
<cardType>IYTC</cardType>
<cardType>SCHOLAR</cardType>
<web>www.caffeitalia.cz</web>
<email>info@caffeitalia.cz</email>
<phone>222316423</phone>
<address>
<city>Praha</city>
<street>Old Town Square</street>
<premise>604</premise>
<streetNumber>14</streetNumber>
<latitude>50.08762</latitude>
<longtitude>14.422043</longtitude>
<gpsStatus>OK</gpsStatus>
<coor>true</coor>
</address>
</benefit>
<benefit id="17">
<name>Subway - Galerie Šantovka</name>
<cardType>ISIC</cardType>
<cardType>ITIC</cardType>
<cardType>IYTC</cardType>
<cardType>SCHOLAR</cardType>
<web/>
<email/>
<phone>+420 777 405 394</phone>
<address>
<city>Olomouc</city>
<street>Polská</street>
<premise>###</premise>
<streetNumber>1</streetNumber>
<latitude>49.58866</latitude>
<longtitude>17.257105</longtitude>
<gpsStatus>OK</gpsStatus>
<coor>true</coor>
</address>
</benefit>
<benefit id="18">
<name>Subway - City Park Jihlava</name>
<cardType>ISIC</cardType>
<cardType>ITIC</cardType>
<cardType>IYTC</cardType>
<cardType>SCHOLAR</cardType>
<web/>
<email/>
<phone>+420 730 811 356</phone>
<address>
<city>Jihlava</city>
<street>Hradební</street>
<premise>###</premise>
<streetNumber>1</streetNumber>
<latitude>49.3928</latitude>
<longtitude>15.593314</longtitude>
<gpsStatus>OK</gpsStatus>
<coor>true</coor>
</address>
</benefit>
<benefit id="19">
<name>Sennheiser</name>
<cardType>ISIC</cardType>
<cardType>ITIC</cardType>
<cardType>IYTC</cardType>
<cardType>SCHOLAR</cardType>
<web>www.pantershop.cz</web>
<email>panter@panter-praha.cz</email>
<phone>241 040 940</phone>
<address>
<city>Praha</city>
<street>Bohuslava Martinů</street>
<premise>944</premise>
<streetNumber>7</streetNumber>
<latitude>50.040775</latitude>
<longtitude>14.4318285</longtitude>
<gpsStatus>OK</gpsStatus>
<coor>true</coor>
</address>
</benefit>
<benefit id="20">
<name>Fresh Film Fest</name>
<cardType>ISIC</cardType>
<web>www.freshfilmfest.net/</web>
<email/>
<phone/>
<address>
<city>Praha</city>
<street>###</street>
<premise>###</premise>
<streetNumber>###</streetNumber>
<latitude>50.07554</latitude>
<longtitude>14.4378</longtitude>
<gpsStatus>OK</gpsStatus>
<coor>true</coor>
</address>
</benefit>
<benefit id="21">
<name>Burrito Loco</name>
<cardType>ISIC</cardType>
<cardType>ITIC</cardType>
<cardType>IYTC</cardType>
<cardType>SCHOLAR</cardType>
<web>www.burritoloco.cz</web>
<email>info@burritoloco.cz</email>
<phone>606039333</phone>
<address>
<city>Praha</city>
<street>Spálená</street>
<premise>104</premise>
<streetNumber>43</streetNumber>
<latitude>50.08131</latitude>
<longtitude>14.419369</longtitude>
<gpsStatus>OK</gpsStatus>
<coor>true</coor>
</address>
</benefit>
<benefit id="22">
<name>Burrito Loco</name>
<cardType>ISIC</cardType>
<cardType>ITIC</cardType>
<cardType>IYTC</cardType>
<cardType>SCHOLAR</cardType>
<web>www.burritoloco.cz</web>
<email>info@burritoloco.cz</email>
<phone>602281866</phone>
<address>
<city>Praha</city>
<street>Masná</street>
<premise>620</premise>
<streetNumber>2</streetNumber>
<latitude>50.08929</latitude>
<longtitude>14.4232435</longtitude>
<gpsStatus>OK</gpsStatus>
<coor>true</coor>
</address>
</benefit>
<benefit id="23">
<name>Veterinární klinika a chovatelské potřeby</name>
<cardType>ISIC</cardType>
<cardType>ITIC</cardType>
<cardType>IYTC</cardType>
<cardType>SCHOLAR</cardType>
<web>www.petshop-brno.cz</web>
<email>katulka.de@gmail.com</email>
<phone>777 322 230, 541 213 311</phone>
<address>
<city>Brno</city>
<street>Kounicova</street>
<premise>677</premise>
<streetNumber>2</streetNumber>
<latitude>49.19998</latitude>
<longtitude>16.605326</longtitude>
<gpsStatus>OK</gpsStatus>
<coor>true</coor>
</address>
</benefit>
<benefit id="24">
<name>Vinotéka Žižkov</name>
<cardType>ISIC</cardType>
<cardType>ITIC</cardType>
<cardType>IYTC</cardType>
<cardType>SCHOLAR</cardType>
<web>www.vinoteka-zizkov.cz</web>
<email>info@vinoteka-zizkov.cz</email>
<phone>+420223005691</phone>
<address>
<city>Praha</city>
<street>Čajkovského</street>
<premise>1709</premise>
<streetNumber>28</streetNumber>
<latitude>50.083088</latitude>
<longtitude>14.451975</longtitude>
<gpsStatus>OK</gpsStatus>
<coor>true</coor>
</address>
</benefit>
<benefit id="25">
<name>Vinotéka Karlín</name>
<cardType>ISIC</cardType>
<cardType>ITIC</cardType>
<cardType>IYTC</cardType>
<cardType>SCHOLAR</cardType>
<web>www.vinoteka-karlin.cz</web>
<email>info@vinoteka-karlin.cz</email>
<phone>+420 222 948 656</phone>
<address>
<city>Praha</city>
<street>Šaldova</street>
<premise>406</premise>
<streetNumber>28</streetNumber>
<latitude>50.09415</latitude>
<longtitude>14.4553585</longtitude>
<gpsStatus>OK</gpsStatus>
<coor>true</coor>
</address>
</benefit>
<benefit id="26">
<name>Vinárna Křižík</name>
<cardType>ISIC</cardType>
<cardType>ITIC</cardType>
<cardType>IYTC</cardType>
<cardType>SCHOLAR</cardType>
<web>www.vinoteka-krizik.cz</web>
<email>info@vinarna-krizik.cz</email>
<phone>+420222314718</phone>
<address>
<city>Praha</city>
<street>Thámova</street>
<premise>###</premise>
<streetNumber>34</streetNumber>
<latitude>50.094284</latitude>
<longtitude>14.451407</longtitude>
<gpsStatus>OK</gpsStatus>
<coor>true</coor>
</address>
</benefit>
<benefit id="27">
<name>Subway - OC Futurum Ostrava</name>
<cardType>ISIC</cardType>
<cardType>ITIC</cardType>
<cardType>IYTC</cardType>
<cardType>SCHOLAR</cardType>
<web>www.subwaynovakarolina.cz</web>
<email>info@subwaynovakarolina.cz</email>
<phone>602369022</phone>
<address>
<city>Ostrava</city>
<street>Novinářská</street>
<premise>###</premise>
<streetNumber>6A</streetNumber>
<latitude>49.832474</latitude>
<longtitude>18.262472</longtitude>
<gpsStatus>OK</gpsStatus>
<coor>true</coor>
</address>
</benefit>
<benefit id="28">
<name>Horsefeathers store Jihlava</name>
<cardType>ISIC</cardType>
<cardType>ITIC</cardType>
<cardType>IYTC</cardType>
<cardType>SCHOLAR</cardType>
<cardType>SPHERE</cardType>
<web>www.horsefeathers-store.eu</web>
<email>jihlava@hfshop.cz</email>
<phone>730162162</phone>
<address>
<city>Jihlava</city>
<street>Kosmákova</street>
<premise>1066</premise>
<streetNumber>21</streetNumber>
<latitude>49.393715</latitude>
<longtitude>15.5895605</longtitude>
<gpsStatus>OK</gpsStatus>
<coor>true</coor>
</address>
</benefit>
<benefit id="29">
<name>AVACOM</name>
<cardType>ISIC</cardType>
<cardType>ITIC</cardType>
<cardType>IYTC</cardType>
<cardType>SCHOLAR</cardType>
<web>www.avacom.cz</web>
<email>zborovska@avacom.cz</email>
<phone>+420 257 322 721</phone>
<address>
<city>Praha</city>
<street>Zborovská</street>
<premise>575</premise>
<streetNumber>41</streetNumber>
<latitude>50.079777</latitude>
<longtitude>14.406866</longtitude>
<gpsStatus>OK</gpsStatus>
<coor>true</coor>
</address>
</benefit>
<benefit id="30">
<name>Eiffel optic</name>
<cardType>ISIC</cardType>
<cardType>ITIC</cardType>
<cardType>IYTC</cardType>
<cardType>SCHOLAR</cardType>
<web>www.eiffeloptic.cz</web>
<email>info@eiffeloptic.cz</email>
<phone/>
<address>
<city>Praha</city>
<street>Českomoravská</street>
<premise>2420</premise>
<streetNumber>2420/15a</streetNumber>
<latitude>50.103905</latitude>
<longtitude>14.49083</longtitude>
<gpsStatus>OK</gpsStatus>
<coor>true</coor>
</address>
</benefit>
<benefit id="31">
<name>HZH SPORT</name>
<cardType>ISIC</cardType>
<cardType>ITIC</cardType>
<cardType>IYTC</cardType>
<cardType>SCHOLAR</cardType>
<web>www.hzhsport.cz</web>
<email>ostrava@hzh.cz</email>
<phone/>
<address>
<city>Ostrava</city>
<street>###</street>
<premise>###</premise>
<streetNumber>###</streetNumber>
<latitude>49.820923</latitude>
<longtitude>18.262524</longtitude>
<gpsStatus>OK</gpsStatus>
<coor>true</coor>
</address>
</benefit>
<benefit id="32">
<name>HZH SPORT</name>
<cardType>ISIC</cardType>
<cardType>ITIC</cardType>
<cardType>IYTC</cardType>
<cardType>SCHOLAR</cardType>
<web>www.hzhsport.cz</web>
<email>olomouc@hzh.cz</email>
<phone/>
<address>
<city>Olomouc</city>
<street>Horní náměstí</street>
<premise>204</premise>
<streetNumber>13</streetNumber>
<latitude>49.593792</latitude>
<longtitude>17.252539</longtitude>
<gpsStatus>OK</gpsStatus>
<coor>true</coor>
</address>
</benefit>
<benefit id="33">
<name>HZH SPORT</name>
<cardType>ISIC</cardType>
<cardType>ITIC</cardType>
<cardType>IYTC</cardType>
<cardType>SCHOLAR</cardType>
<web>www.hzhsport.cz</web>
<email>olomouc.olympia@hzh.cz</email>
<phone/>
<address>
<city>Olomouc</city>
<street>###</street>
<premise>###</premise>
<streetNumber>###</streetNumber>
<latitude>49.593777</latitude>
<longtitude>17.25088</longtitude>
<gpsStatus>OK</gpsStatus>
<coor>true</coor>
</address>
</benefit>
<benefit id="34">
<name>HZH SPORT</name>
<cardType>ISIC</cardType>
<cardType>ITIC</cardType>
<cardType>IYTC</cardType>
<cardType>SCHOLAR</cardType>
<web>www.hzhsport.cz</web>
<email>sumperk@hzh.cz</email>
<phone/>
<address>
<city>Sumperk</city>
<street>Starobranská</street>
<premise>246</premise>
<streetNumber>23</streetNumber>
<latitude>49.96612</latitude>
<longtitude>16.9731</longtitude>
<gpsStatus>OK</gpsStatus>
<coor>true</coor>
</address>
</benefit>
<benefit id="35">
<name>HZH SPORT</name>
<cardType>ISIC</cardType>
<cardType>ITIC</cardType>
<cardType>IYTC</cardType>
<cardType>SCHOLAR</cardType>
<web>olomouc.santovka@hzh.cz</web>
<email>olomouc.santovka@hzh.cz</email>
<phone/>
<address>
<city>Olomouc</city>
<street>###</street>
<premise>###</premise>
<streetNumber>###</streetNumber>
<latitude>49.593777</latitude>
<longtitude>17.25088</longtitude>
<gpsStatus>OK</gpsStatus>
<coor>true</coor>
</address>
</benefit>
<benefit id="36">
<name>HOUSACAR</name>
<cardType>ISIC</cardType>
<web>www.housa.cz</web>
<email>housacar@housa.cz</email>
<phone>571 698 321</phone>
<address>
<city>Zlin</city>
<street>třída Tomáše Bati</street>
<premise>###</premise>
<streetNumber>258</streetNumber>
<latitude>49.225506</latitude>
<longtitude>17.680464</longtitude>
<gpsStatus>OK</gpsStatus>
<coor>true</coor>
</address>
</benefit>
<benefit id="37">
<name>A&amp;O HOTEL and HOSTEL</name>
<cardType>ISIC</cardType>
<cardType>ITIC</cardType>
<cardType>IYTC</cardType>
<cardType>SCHOLAR</cardType>
<web>www.aohostels.com</web>
<email/>
<phone>286 880234</phone>
<address>
<city>Praha</city>
<street>Děčínská</street>
<premise>###</premise>
<streetNumber>1</streetNumber>
<latitude>50.12503</latitude>
<longtitude>14.483063</longtitude>
<gpsStatus>OK</gpsStatus>
<coor>true</coor>
</address>
</benefit>
<benefit id="38">
<name>Datour</name>
<cardType>ISIC</cardType>
<cardType>ITIC</cardType>
<cardType>IYTC</cardType>
<cardType>SCHOLAR</cardType>
<web>www.datour.cz</web>
<email>praha@datour.cz</email>
<phone>212241750</phone>
<address>
<city>Praha</city>
<street>Antala Staška</street>
<premise>1565</premise>
<streetNumber>30</streetNumber>
<latitude>50.040314</latitude>
<longtitude>14.438881</longtitude>
<gpsStatus>OK</gpsStatus>
<coor>true</coor>
</address>
</benefit>
<benefit id="39">
<name>Movies club</name>
<cardType>ISIC</cardType>
<cardType>ITIC</cardType>
<cardType>IYTC</cardType>
<cardType>SCHOLAR</cardType>
<web>www.moviesclub.cz</web>
<email>info@moviesclub.cz</email>
<phone>216 216 869, 601 203 230</phone>
<address>
<city>Praha</city>
<street>Veletržní</street>
<premise>924</premise>
<streetNumber>14</streetNumber>
<latitude>50.102272</latitude>
<longtitude>14.43369</longtitude>
<gpsStatus>OK</gpsStatus>
<coor>true</coor>
</address>
</benefit>
<benefit id="40">
<name>Habanero Mexican Grill</name>
<cardType>ISIC</cardType>
<cardType>ITIC</cardType>
<cardType>IYTC</cardType>
<cardType>SCHOLAR</cardType>
<web>www.habanerogrill.cz</web>
<email>kontakt@habanerogrill.cz</email>
<phone>777 211 561</phone>
<address>
<city>Praha</city>
<street>Roztylská</street>
<premise>2321</premise>
<streetNumber>19</streetNumber>
<latitude>50.03207</latitude>
<longtitude>14.490996</longtitude>
<gpsStatus>OK</gpsStatus>
<coor>true</coor>
</address>
</benefit>
<benefit id="41">
<name>Papírnictví a výtvarné potřeby</name>
<cardType>ISIC</cardType>
<cardType>ITIC</cardType>
<cardType>IYTC</cardType>
<cardType>SCHOLAR</cardType>
<web>www.optys.cz</web>
<email>olomouc@optys.cz</email>
<phone>585 203 863</phone>
<address>
<city>Olomouc</city>
<street>Ostružnická</street>
<premise>360</premise>
<streetNumber>7</streetNumber>
<latitude>49.594765</latitude>
<longtitude>17.252396</longtitude>
<gpsStatus>OK</gpsStatus>
<coor>true</coor>
</address>
</benefit>
<benefit id="42">
<name>Papírnictví a výtvarné potřeby</name>
<cardType>ISIC</cardType>
<cardType>ITIC</cardType>
<cardType>IYTC</cardType>
<cardType>SCHOLAR</cardType>
<web>www.optys.cz</web>
<email>prodejna.masarykova@optys.cz</email>
<phone>553 615 703</phone>
<address>
<city>Opava</city>
<street>Masarykova třída</street>
<premise>###</premise>
<streetNumber>36</streetNumber>
<latitude>49.935955</latitude>
<longtitude>17.903078</longtitude>
<gpsStatus>OK</gpsStatus>
<coor>true</coor>
</address>
</benefit>
<benefit id="43">
<name>Papírnictví</name>
<cardType>ISIC</cardType>
<cardType>ITIC</cardType>
<cardType>IYTC</cardType>
<cardType>SCHOLAR</cardType>
<web>www.optys.cz</web>
<email>prodejna.rybarska@optys.cz</email>
<phone>553 777 343</phone>
<address>
<city>Opava</city>
<street>Rybářská</street>
<premise>89</premise>
<streetNumber>44</streetNumber>
<latitude>49.944756</latitude>
<longtitude>17.896236</longtitude>
<gpsStatus>OK</gpsStatus>
<coor>true</coor>
</address>
</benefit>
<benefit id="44">
<name>Papírnictví a výtvarné potřeby</name>
<cardType>ISIC</cardType>
<cardType>ITIC</cardType>
<cardType>IYTC</cardType>
<cardType>SCHOLAR</cardType>
<web>www.optys.cz</web>
<email>bilovec@optys.cz</email>
<phone>556 412 407</phone>
<address>
<city>Bílovec</city>
<street>Slezské náměstí</street>
<premise>28</premise>
<streetNumber>25</streetNumber>
<latitude>49.757915</latitude>
<longtitude>18.017462</longtitude>
<gpsStatus>OK</gpsStatus>
<coor>true</coor>
</address>
</benefit>
<benefit id="45">
<name>Papírnictví a výtvarné potřeby</name>
<cardType>ISIC</cardType>
<cardType>ITIC</cardType>
<cardType>IYTC</cardType>
<cardType>SCHOLAR</cardType>
<web>www.optys.cz</web>
<email>havirov@optys.cz</email>
<phone>596 818 977</phone>
<address>
<city>Havířov</city>
<street>Fibichova</street>
<premise>227</premise>
<streetNumber>21</streetNumber>
<latitude>49.780254</latitude>
<longtitude>18.429256</longtitude>
<gpsStatus>OK</gpsStatus>
<coor>true</coor>
</address>
</benefit>
<benefit id="46">
<name>Diskontní prodejna kancelářských a výtvarných potřeb</name>
<cardType>ISIC</cardType>
<cardType>ITIC</cardType>
<cardType>IYTC</cardType>
<cardType>SCHOLAR</cardType>
<web>www.optys.cz</web>
<email>novy.jicin@optys.cz</email>
<phone>556 720 915</phone>
<address>
<city>Novy Jicin</city>
<street>K Nemocnici</street>
<premise>2205</premise>
<streetNumber>63</streetNumber>
<latitude>49.58604</latitude>
<longtitude>18.00579</longtitude>
<gpsStatus>OK</gpsStatus>
<coor>true</coor>
</address>
</benefit>
<benefit id="47">
<name>Papírnictví a výtvarné potřeby</name>
<cardType>ISIC</cardType>
<cardType>ITIC</cardType>
<cardType>IYTC</cardType>
<cardType>SCHOLAR</cardType>
<web>www.optys.cz</web>
<email>jablonec@optys.cz</email>
<phone>483 319 887</phone>
<address>
<city>Jablonec nad Nisou</city>
<street>Dolní náměstí</street>
<premise>651</premise>
<streetNumber>4</streetNumber>
<latitude>50.72321</latitude>
<longtitude>15.171274</longtitude>
<gpsStatus>OK</gpsStatus>
<coor>true</coor>
</address>
</benefit>
<benefit id="48">
<name>Výtvarné potřeby a papírnictví</name>
<cardType>ISIC</cardType>
<cardType>ITIC</cardType>
<cardType>IYTC</cardType>
<cardType>SCHOLAR</cardType>
<web>www.optys.cz</web>
<email>brno@optys.cz</email>
<phone>542 211 363</phone>
<address>
<city>Brno</city>
<street>Hybešova</street>
<premise>###</premise>
<streetNumber>28</streetNumber>
<latitude>49.189323</latitude>
<longtitude>16.603668</longtitude>
<gpsStatus>OK</gpsStatus>
<coor>true</coor>
</address>
</benefit>
<benefit id="49">
<name>Výtvarné potřeby</name>
<cardType>ISIC</cardType>
<cardType>ITIC</cardType>
<cardType>IYTC</cardType>
<cardType>SCHOLAR</cardType>
<web>www.optys.cz</web>
<email>predajna.zilina@optys.sk</email>
<phone>+421 692 866</phone>
<address>
<city>Zilina</city>
<street>Republiky</street>
<premise>996</premise>
<streetNumber>1</streetNumber>
<latitude>49.2245</latitude>
<longtitude>18.742521</longtitude>
<gpsStatus>OK</gpsStatus>
<coor>true</coor>
</address>
</benefit>
<benefit id="50">
<name>Albi</name>
<cardType>ISIC</cardType>
<cardType>ITIC</cardType>
<cardType>IYTC</cardType>
<cardType>SCHOLAR</cardType>
<cardType>SPHERE</cardType>
<web>www.albi.cz</web>
<email>praha.flora.kasa@albi.cz</email>
<phone>730843811</phone>
<address>
<city>Praha</city>
<street>Vinohradská</street>
<premise>Atrium Flóra</premise>
<streetNumber>151</streetNumber>
<latitude>50.077656</latitude>
<longtitude>14.433617</longtitude>
<gpsStatus>OK</gpsStatus>
<coor>true</coor>
</address>
</benefit>
<benefit id="51">
<name>Albi</name>
<cardType>ISIC</cardType>
<cardType>ITIC</cardType>
<cardType>IYTC</cardType>
<cardType>SCHOLAR</cardType>
<web>www.albi.cz</web>
<email>teplice.galerie.kasa@albi.cz</email>
<phone>734395548</phone>
<address>
<city>Teplice</city>
<street>náměstí Svobody</street>
<premise>2937</premise>
<streetNumber>###</streetNumber>
<latitude>50.63978</latitude>
<longtitude>13.823864</longtitude>
<gpsStatus>OK</gpsStatus>
<coor>true</coor>
</address>
</benefit>
<benefit id="52">
<name>Qítko hobby - Korálkové a hobby království!</name>
<cardType>ISIC</cardType>
<cardType>ITIC</cardType>
<cardType>IYTC</cardType>
<cardType>SCHOLAR</cardType>
<web>www.qitko-hobby.cz</web>
<email>info@qitko-hobby.cz</email>
<phone>+420 733 132 076</phone>
<address>
<city>Prostějov</city>
<street>Vápenice</street>
<premise>2969</premise>
<streetNumber>19</streetNumber>
<latitude>49.474205</latitude>
<longtitude>17.112846</longtitude>
<gpsStatus>OK</gpsStatus>
<coor>true</coor>
</address>
</benefit>
<benefit id="53">
<name>Qítko hobby - Korálkové a hobby království!</name>
<cardType>ISIC</cardType>
<cardType>ITIC</cardType>
<cardType>IYTC</cardType>
<cardType>SCHOLAR</cardType>
<web>www.qitko-hobby.cz</web>
<email>info@qitko-hobby.cz</email>
<phone>+420 702 571 052</phone>
<address>
<city>Prerov</city>
<street>Pivovarská</street>
<premise>###</premise>
<streetNumber>1</streetNumber>
<latitude>49.456276</latitude>
<longtitude>17.449858</longtitude>
<gpsStatus>OK</gpsStatus>
<coor>true</coor>
</address>
</benefit>
<benefit id="54">
<name>Qítko hobby - Korálkové a hobby království!</name>
<cardType>ISIC</cardType>
<cardType>ITIC</cardType>
<cardType>IYTC</cardType>
<cardType>SCHOLAR</cardType>
<web>www.qitko-hobby.cz</web>
<email>info@qitko-hobby.cz</email>
<phone>+420 733 219 374</phone>
<address>
<city>Uhelná</city>
<street>Uhelná</street>
<premise>33</premise>
<streetNumber>21</streetNumber>
<latitude>50.33247</latitude>
<longtitude>16.987623</longtitude>
<gpsStatus>OK</gpsStatus>
<coor>true</coor>
</address>
</benefit>
<benefit id="55">
<name>Vitaland</name>
<cardType>ISIC</cardType>
<cardType>ITIC</cardType>
<cardType>IYTC</cardType>
<cardType>SCHOLAR</cardType>
<web>www.vitaland.cz</web>
<email>info@vitaland.cz</email>
<phone>800 117 800</phone>
<address>
<city>Hl.m. Praha</city>
<street>Radlická</street>
<premise>###</premise>
<streetNumber>117</streetNumber>
<latitude>50.048622</latitude>
<longtitude>14.354728</longtitude>
<gpsStatus>OK</gpsStatus>
<coor>true</coor>
</address>
</benefit>
<benefit id="56">
<name>newbike.cz</name>
<cardType>ISIC</cardType>
<cardType>ITIC</cardType>
<cardType>IYTC</cardType>
<cardType>SCHOLAR</cardType>
<web>www.newbike.cz</web>
<email>obchod@newbike.cz</email>
<phone>777 915 665</phone>
<address>
<city>Lysovice</city>
<street>###</street>
<premise>121</premise>
<streetNumber>###</streetNumber>
<latitude>49.21995</latitude>
<longtitude>16.973736</longtitude>
<gpsStatus>OK</gpsStatus>
<coor>true</coor>
</address>
</benefit>
<benefit id="57">
<name>encar.cz</name>
<cardType>ISIC</cardType>
<cardType>ITIC</cardType>
<cardType>IYTC</cardType>
<web>www.encar.cz</web>
<email>info@encar.cz</email>
<phone>+420 777 560 690</phone>
<address>
<city>Praha</city>
<street>Podbabská</street>
<premise>###</premise>
<streetNumber>17</streetNumber>
<latitude>50.118496</latitude>
<longtitude>14.392465</longtitude>
<gpsStatus>OK</gpsStatus>
<coor>true</coor>
</address>
</benefit>
<benefit id="58">
<name>Power Play Studio</name>
<cardType>ISIC</cardType>
<cardType>ITIC</cardType>
<cardType>IYTC</cardType>
<cardType>SCHOLAR</cardType>
<web>www.powerplaystudio.cz</web>
<email>info@powerplaystudio.cz</email>
<phone>585 230 354, 777 898 308</phone>
<address>
<city>Olomouc</city>
<street>Vídeňská</street>
<premise>636</premise>
<streetNumber>10</streetNumber>
<latitude>49.59001</latitude>
<longtitude>17.249374</longtitude>
<gpsStatus>OK</gpsStatus>
<coor>true</coor>
</address>
</benefit>
<benefit id="59">
<name>KFC - Olomouc Šantovka</name>
<cardType>ISIC</cardType>
<web>www.kfc.cz</web>
<email>kfcsantovka@amrest.eu</email>
<phone>235 013 400</phone>
<address>
<city>Olomouc</city>
<street>Polská</street>
<premise>###</premise>
<streetNumber>1</streetNumber>
<latitude>49.58866</latitude>
<longtitude>17.257105</longtitude>
<gpsStatus>OK</gpsStatus>
<coor>true</coor>
</address>
</benefit>
<benefit id="60">
<name>KFC - Prostějov DT</name>
<cardType>ISIC</cardType>
<web>www.kfc.cz</web>
<email>kfcprostejov@amrest.eu</email>
<phone>235 013 413</phone>
<address>
<city>Držovice</city>
<street>Konečná</street>
<premise>###</premise>
<streetNumber>###</streetNumber>
<latitude>49.483078</latitude>
<longtitude>17.125559</longtitude>
<gpsStatus>OK</gpsStatus>
<coor>true</coor>
</address>
</benefit>
<benefit id="61">
<name>LIBREX</name>
<cardType>ISIC</cardType>
<cardType>ITIC</cardType>
<cardType>IYTC</cardType>
<cardType>SCHOLAR</cardType>
<web>www.librex.cz</web>
<email>knihkupectvi24@librex.cz</email>
<phone>+420554717167</phone>
<address>
<city>Bruntál</city>
<street>Kostelní</street>
<premise>###</premise>
<streetNumber>###</streetNumber>
<latitude>49.989323</latitude>
<longtitude>17.465254</longtitude>
<gpsStatus>OK</gpsStatus>
<coor>true</coor>
</address>
</benefit>
<benefit id="62">
<name>LIBREX - Knihkupectví PLEJÁDA</name>
<cardType>ISIC</cardType>
<cardType>ITIC</cardType>
<cardType>IYTC</cardType>
<cardType>SCHOLAR</cardType>
<web>www.librex.cz</web>
<email>knihkupectvi16@librex.cz</email>
<phone>+420571611034</phone>
<address>
<city>Rožnov pod Radhoštěm</city>
<street>###</street>
<premise>###</premise>
<streetNumber>###</streetNumber>
<latitude>49.458527</latitude>
<longtitude>18.14303</longtitude>
<gpsStatus>OK</gpsStatus>
<coor>true</coor>
</address>
</benefit>
<benefit id="63">
<name>LIBREX Ostrava</name>
<cardType>ISIC</cardType>
<cardType>ITIC</cardType>
<cardType>IYTC</cardType>
<cardType>SCHOLAR</cardType>
<web>www.librex.cz</web>
<email>knihkupectvi01@librex.cz</email>
<phone>+420596111909</phone>
<address>
<city>Ostrava</city>
<street>Nádražní</street>
<premise>###</premise>
<streetNumber>14</streetNumber>
<latitude>49.835697</latitude>
<longtitude>18.287024</longtitude>
<gpsStatus>OK</gpsStatus>
<coor>true</coor>
</address>
</benefit>
<benefit id="64">
<name>LIBREX Ostrava</name>
<cardType>ISIC</cardType>
<cardType>ITIC</cardType>
<cardType>IYTC</cardType>
<cardType>SCHOLAR</cardType>
<web>www.librex.cz</web>
<email>knihkupectvi04@librex.cz</email>
<phone>+420596914505</phone>
<address>
<city>Ostrava</city>
<street>17. listopadu</street>
<premise>1790</premise>
<streetNumber>5</streetNumber>
<latitude>49.826797</latitude>
<longtitude>18.161081</longtitude>
<gpsStatus>OK</gpsStatus>
<coor>true</coor>
</address>
</benefit>
<benefit id="65">
<name>LIBREX Frýdek - Místek</name>
<cardType>ISIC</cardType>
<cardType>ITIC</cardType>
<cardType>IYTC</cardType>
<cardType>SCHOLAR</cardType>
<web>www.librex.cz</web>
<email>knihkupectvi10@librex.cz</email>
<phone>+420558647910</phone>
<address>
<city>Frýdek-Místek</city>
<street>náměstí Svobody</street>
<premise>###</premise>
<streetNumber>###</streetNumber>
<latitude>49.675613</latitude>
<longtitude>18.341015</longtitude>
<gpsStatus>OK</gpsStatus>
<coor>true</coor>
</address>
</benefit>
<benefit id="66">
<name>LIBREX - Knihkupectví OC ALKRON</name>
<cardType>ISIC</cardType>
<cardType>ITIC</cardType>
<cardType>IYTC</cardType>
<cardType>SCHOLAR</cardType>
<web>www.librex.cz</web>
<email>knihkupectvi21@librex.cz</email>
<phone>+420584409101</phone>
<address>
<city>Jesenik</city>
<street>Palackého</street>
<premise>1341</premise>
<streetNumber>2</streetNumber>
<latitude>50.23015</latitude>
<longtitude>17.204939</longtitude>
<gpsStatus>OK</gpsStatus>
<coor>true</coor>
</address>
</benefit>
<benefit id="67">
<name>LIBREX</name>
<cardType>ISIC</cardType>
<cardType>ITIC</cardType>
<cardType>IYTC</cardType>
<cardType>SCHOLAR</cardType>
<web>www.librex.cz</web>
<email>knihkupectvi18@librex.cz</email>
<phone>+420571611067</phone>
<address>
<city>Valasske Mezirici</city>
<street>Náměstí</street>
<premise>75</premise>
<streetNumber>15</streetNumber>
<latitude>49.470963</latitude>
<longtitude>17.97215</longtitude>
<gpsStatus>OK</gpsStatus>
<coor>true</coor>
</address>
</benefit>
<benefit id="68">
<name>LIBREX Havířov - Knihkupectví v obchodním domě ELÁN</name>
<cardType>ISIC</cardType>
<cardType>ITIC</cardType>
<cardType>IYTC</cardType>
<cardType>SCHOLAR</cardType>
<web>www.librex.cz</web>
<email>knihkupectvi14@librex.cz</email>
<phone>+420596810074</phone>
<address>
<city>Havířov</city>
<street>nám. Republiky</street>
<premise>###</premise>
<streetNumber>###</streetNumber>
<latitude>49.77885</latitude>
<longtitude>18.430765</longtitude>
<gpsStatus>OK</gpsStatus>
<coor>true</coor>
</address>
</benefit>
<benefit id="69">
<name>LIBREX Frýdek - Místek</name>
<cardType>ISIC</cardType>
<cardType>ITIC</cardType>
<cardType>IYTC</cardType>
<web>www.librex.cz</web>
<email>knihkupectvi23@librex.cz</email>
<phone>+420558680246</phone>
<address>
<city>Frýdek-Místek</city>
<street>třída Tomáše Garrigua Masaryka</street>
<premise>2320</premise>
<streetNumber>###</streetNumber>
<latitude>49.67992</latitude>
<longtitude>18.35649</longtitude>
<gpsStatus>OK</gpsStatus>
<coor>true</coor>
</address>
</benefit>
<benefit id="70">
<name>LIBREX Ostrava</name>
<cardType>ISIC</cardType>
<cardType>ITIC</cardType>
<cardType>IYTC</cardType>
<cardType>SCHOLAR</cardType>
<web>www.librex.cz</web>
<email>knihkupectvi02@librex.cz</email>
<phone>+420596633615</phone>
<address>
<city>Ostrava</city>
<street>28. října</street>
<premise>66</premise>
<streetNumber>201</streetNumber>
<latitude>49.827866</latitude>
<longtitude>18.257479</longtitude>
<gpsStatus>OK</gpsStatus>
<coor>true</coor>
</address>
</benefit>
<benefit id="71">
<name>LIBREX Opava - Knihkupectví v Ostrožné</name>
<cardType>ISIC</cardType>
<cardType>ITIC</cardType>
<cardType>IYTC</cardType>
<cardType>SCHOLAR</cardType>
<web>www.librex.cz</web>
<email>knihkupectvi12@librex.cz</email>
<phone>+420553610464</phone>
<address>
<city>Opava</city>
<street>Ostrožná</street>
<premise>241</premise>
<streetNumber>33</streetNumber>
<latitude>49.93649</latitude>
<longtitude>17.901987</longtitude>
<gpsStatus>OK</gpsStatus>
<coor>true</coor>
</address>
</benefit>
<benefit id="72">
<name>Hostel Kotva</name>
<cardType>ISIC</cardType>
<cardType>ITIC</cardType>
<cardType>IYTC</cardType>
<cardType>SCHOLAR</cardType>
<web>www.hostelkotva.cz</web>
<email>recepce@hostelkotva.cz</email>
<phone>+420 777 222 333</phone>
<address>
<city>Praha</city>
<street>Varhulíkové</street>
<premise>134</premise>
<streetNumber>###</streetNumber>
<latitude>50.111607</latitude>
<longtitude>14.451173</longtitude>
<gpsStatus>OK</gpsStatus>
<coor>true</coor>
</address>
</benefit>
<benefit id="73">
<name>FERR.cz</name>
<cardType>ISIC</cardType>
<cardType>ITIC</cardType>
<cardType>IYTC</cardType>
<cardType>SCHOLAR</cardType>
<web>www.ferr.cz</web>
<email>broz@ferr.cz</email>
<phone/>
<address>
<city>Polná</city>
<street>U Hřbitova</street>
<premise>1115</premise>
<streetNumber>###</streetNumber>
<latitude>49.490112</latitude>
<longtitude>15.722339</longtitude>
<gpsStatus>OK</gpsStatus>
<coor>true</coor>
</address>
</benefit>
<benefit id="74">
<name>Penzion Světlá</name>
<cardType>ISIC</cardType>
<cardType>ITIC</cardType>
<cardType>IYTC</cardType>
<cardType>SCHOLAR</cardType>
<web>www.penzion-ubytovani-jizerske-hory.cz</web>
<email>cerv.h@seznam.cz</email>
<phone>+420 737 422 079</phone>
<address>
<city>Tanvald</city>
<street>Vítězná</street>
<premise>157</premise>
<streetNumber>###</streetNumber>
<latitude>50.74354</latitude>
<longtitude>15.333618</longtitude>
<gpsStatus>OK</gpsStatus>
<coor>true</coor>
</address>
</benefit>
<benefit id="75">
<name>COOL CAFE - OC Čtyři Dvory</name>
<cardType>ISIC</cardType>
<cardType>ITIC</cardType>
<cardType>IYTC</cardType>
<web/>
<email/>
<phone/>
<address>
<city>Ceske Budejovice</city>
<street>M. Horákové</street>
<premise>1498</premise>
<streetNumber>###</streetNumber>
<latitude>48.98264</latitude>
<longtitude>14.442349</longtitude>
<gpsStatus>OK</gpsStatus>
<coor>true</coor>
</address>
</benefit>
<benefit id="76">
<name>Prague International Marathon, spol. s r. o.</name>
<cardType>ISIC</cardType>
<cardType>ITIC</cardType>
<cardType>IYTC</cardType>
<web>www.runningmall.cz</web>
<email>training@runningmall.cz</email>
<phone>+420 777486800</phone>
<address>
<city>Praha</city>
<street>Františka Křížka</street>
<premise>461</premise>
<streetNumber>11</streetNumber>
<latitude>50.099606</latitude>
<longtitude>14.430343</longtitude>
<gpsStatus>OK</gpsStatus>
<coor>true</coor>
</address>
</benefit>
<benefit id="77">
<name>Smaller Earth Czech Republic</name>
<cardType>ISIC</cardType>
<cardType>ITIC</cardType>
<cardType>IYTC</cardType>
<cardType>SCHOLAR</cardType>
<web>www.helloacademies.com</web>
<email>czech@smallerearth.com</email>
<phone>+420 728 345 284</phone>
<address>
<city>Praha</city>
<street>Tyršova</street>
<premise>1832</premise>
<streetNumber>7</streetNumber>
<latitude>50.073013</latitude>
<longtitude>14.430848</longtitude>
<gpsStatus>OK</gpsStatus>
<coor>true</coor>
</address>
</benefit>
<benefit id="78">
<name>Pyroefekty.cz</name>
<cardType>ISIC</cardType>
<cardType>ITIC</cardType>
<cardType>IYTC</cardType>
<cardType>SCHOLAR</cardType>
<web>www.pyroefekty.cz</web>
<email>manager@pyroefekty.cz</email>
<phone>604 555 959</phone>
<address>
<city>Praha</city>
<street>Křejpského</street>
<premise>1508</premise>
<streetNumber>29</streetNumber>
<latitude>50.027977</latitude>
<longtitude>14.513519</longtitude>
<gpsStatus>OK</gpsStatus>
<coor>true</coor>
</address>
</benefit>
<benefit id="79">
<name>Audiotek MEGASTORE</name>
<cardType>ISIC</cardType>
<cardType>ITIC</cardType>
<cardType>IYTC</cardType>
<cardType>SCHOLAR</cardType>
<web>www.audiotek.cz</web>
<email>shop@audiotek.cz</email>
<phone>800 111 170</phone>
<address>
<city>Brno</city>
<street>Veveří</street>
<premise>455</premise>
<streetNumber>8</streetNumber>
<latitude>49.19928</latitude>
<longtitude>16.602978</longtitude>
<gpsStatus>OK</gpsStatus>
<coor>true</coor>
</address>
</benefit>
<benefit id="80">
<name>Audiotek MEGASTORE</name>
<cardType>ISIC</cardType>
<cardType>ITIC</cardType>
<cardType>IYTC</cardType>
<cardType>SCHOLAR</cardType>
<web>www.audiotek.cz</web>
<email>shop@audiotek.cz</email>
<phone>800 111 170</phone>
<address>
<city>Uherske Hradiste</city>
<street>Prostřední</street>
<premise>133</premise>
<streetNumber>###</streetNumber>
<latitude>49.069492</latitude>
<longtitude>17.460285</longtitude>
<gpsStatus>OK</gpsStatus>
<coor>true</coor>
</address>
</benefit>
<benefit id="81">
<name>GALEX</name>
<cardType>ISIC</cardType>
<cardType>ITIC</cardType>
<cardType>IYTC</cardType>
<cardType>SCHOLAR</cardType>
<web>www.karatrutnov.cz</web>
<email>galex11@karatrutnov.cz</email>
<phone>+420 734 257 620</phone>
<address>
<city>Praha</city>
<street>Široká</street>
<premise>2</premise>
<streetNumber>1</streetNumber>
<latitude>50.089573</latitude>
<longtitude>14.416321</longtitude>
<gpsStatus>OK</gpsStatus>
<coor>true</coor>
</address>
</benefit>
<benefit id="82">
<name>GALEX</name>
<cardType>ISIC</cardType>
<cardType>ITIC</cardType>
<cardType>IYTC</cardType>
<cardType>SCHOLAR</cardType>
<web>www.karatrutnov.cz</web>
<email>galex21@karatrutnov.cz</email>
<phone>+420 734 257 628</phone>
<address>
<city>Brno</city>
<street>###</street>
<premise>###</premise>
<streetNumber>###</streetNumber>
<latitude>49.19506</latitude>
<longtitude>16.606836</longtitude>
<gpsStatus>OK</gpsStatus>
<coor>true</coor>
</address>
</benefit>
<benefit id="83">
<name>GALEX</name>
<cardType>ISIC</cardType>
<cardType>ITIC</cardType>
<cardType>IYTC</cardType>
<cardType>SCHOLAR</cardType>
<web>www.karatrutnov.cz</web>
<email>galex22@karatrutnov.cz</email>
<phone>+420 734 257 627</phone>
<address>
<city>Brno</city>
<street>Kobližná</street>
<premise>62</premise>
<streetNumber>14</streetNumber>
<latitude>49.19517</latitude>
<longtitude>16.610962</longtitude>
<gpsStatus>OK</gpsStatus>
<coor>true</coor>
</address>
</benefit>
<benefit id="84">
<name>GALEX</name>
<cardType>ISIC</cardType>
<cardType>ITIC</cardType>
<cardType>IYTC</cardType>
<cardType>SCHOLAR</cardType>
<web>www.karatrutnov.cz</web>
<email>galex32@karatrutnov.cz</email>
<phone>+420 734 257 631</phone>
<address>
<city>Ostrava</city>
<street>Nádražní</street>
<premise>###</premise>
<streetNumber>17</streetNumber>
<latitude>49.835526</latitude>
<longtitude>18.286785</longtitude>
<gpsStatus>OK</gpsStatus>
<coor>true</coor>
</address>
</benefit>
<benefit id="85">
<name>GALEX</name>
<cardType>ISIC</cardType>
<cardType>ITIC</cardType>
<cardType>IYTC</cardType>
<cardType>SCHOLAR</cardType>
<web>www.karatrutnov.cz</web>
<email>galex33@karatrutnov.cz</email>
<phone>+420 734 257 632</phone>
<address>
<city>Ostrava</city>
<street>Jantarová</street>
<premise>###</premise>
<streetNumber>###</streetNumber>
<latitude>49.830704</latitude>
<longtitude>18.286716</longtitude>
<gpsStatus>OK</gpsStatus>
<coor>true</coor>
</address>
</benefit>
<benefit id="86">
<name>GALEX</name>
<cardType>ISIC</cardType>
<cardType>ITIC</cardType>
<cardType>IYTC</cardType>
<cardType>SCHOLAR</cardType>
<web>www.karatrutnov.cz</web>
<email>prodejna72@galex.cz</email>
<phone>+420 430 893 203</phone>
<address>
<city>Ostrava</city>
<street>Rudná</street>
<premise>3114</premise>
<streetNumber>114</streetNumber>
<latitude>49.802017</latitude>
<longtitude>18.227972</longtitude>
<gpsStatus>OK</gpsStatus>
<coor>true</coor>
</address>
</benefit>
<benefit id="87">
<name>GALEX</name>
<cardType>ISIC</cardType>
<cardType>ITIC</cardType>
<cardType>IYTC</cardType>
<cardType>SCHOLAR</cardType>
<web>www.karatrutnov.cz</web>
<email>galex41@karatrutnov.cz</email>
<phone>+420 734 257 623</phone>
<address>
<city>Plzen</city>
<street>Radčická</street>
<premise>2861</premise>
<streetNumber>2</streetNumber>
<latitude>49.749638</latitude>
<longtitude>13.369561</longtitude>
<gpsStatus>OK</gpsStatus>
<coor>true</coor>
</address>
</benefit>
<benefit id="88">
<name>GALEX</name>
<cardType>ISIC</cardType>
<cardType>ITIC</cardType>
<cardType>IYTC</cardType>
<cardType>SCHOLAR</cardType>
<web>www.karatrutnov.cz</web>
<email>galex51@karatrutnov.cz</email>
<phone>+420 734 257 629</phone>
<address>
<city>Liberec</city>
<street>nám. Soukenné</street>
<premise>669</premise>
<streetNumber>2A</streetNumber>
<latitude>50.765614</latitude>
<longtitude>15.056273</longtitude>
<gpsStatus>OK</gpsStatus>
<coor>true</coor>
</address>
</benefit>
<benefit id="89">
<name>GALEX</name>
<cardType>ISIC</cardType>
<cardType>ITIC</cardType>
<cardType>IYTC</cardType>
<cardType>SCHOLAR</cardType>
<web>www.karatrutnov.cz</web>
<email>galex61@karatrutnov.cz</email>
<phone>+420 734 257 630</phone>
<address>
<city>Pardubice</city>
<street>Masarykovo náměstí</street>
<premise>2799</premise>
<streetNumber>###</streetNumber>
<latitude>50.037067</latitude>
<longtitude>15.76887</longtitude>
<gpsStatus>OK</gpsStatus>
<coor>true</coor>
</address>
</benefit>
<benefit id="90">
<name>GALEX</name>
<cardType>ISIC</cardType>
<cardType>ITIC</cardType>
<cardType>IYTC</cardType>
<cardType>SCHOLAR</cardType>
<web>www.karatrutnov.cz</web>
<email>galex72@karatrutnov.cz</email>
<phone>+420 734 257 622</phone>
<address>
<city>Doudleby nad Orlicí</city>
<street>Dukelská</street>
<premise>11</premise>
<streetNumber>11</streetNumber>
<latitude>50.108044</latitude>
<longtitude>16.262941</longtitude>
<gpsStatus>OK</gpsStatus>
<coor>true</coor>
</address>
</benefit>
<benefit id="91">
<name>GALEX</name>
<cardType>ISIC</cardType>
<cardType>ITIC</cardType>
<cardType>IYTC</cardType>
<cardType>SCHOLAR</cardType>
<web>www.karatrutnov.cz</web>
<email>galex81@karatrutnov.cz</email>
<phone>+420 734 257 624</phone>
<address>
<city>Ústí nad Labem</city>
<street>Bílinská</street>
<premise>3490</premise>
<streetNumber>6</streetNumber>
<latitude>50.658665</latitude>
<longtitude>14.041087</longtitude>
<gpsStatus>OK</gpsStatus>
<coor>true</coor>
</address>
</benefit>
<benefit id="92">
<name>OČNÍ STUDIO ALEŠE ŽEJDLA</name>
<cardType>ISIC</cardType>
<cardType>ITIC</cardType>
<cardType>SPHERE</cardType>
<web>www.ocnistudio.cz</web>
<email/>
<phone>543213209, 725437153</phone>
<address>
<city>Brno</city>
<street>Křenová</street>
<premise>479</premise>
<streetNumber>71</streetNumber>
<latitude>49.191467</latitude>
<longtitude>16.625183</longtitude>
<gpsStatus>OK</gpsStatus>
<coor>true</coor>
</address>
</benefit>
<benefit id="93">
<name>OČNÍ STUDIO ALEŠE ŽEJDLA</name>
<cardType>ISIC</cardType>
<cardType>ITIC</cardType>
<cardType>SPHERE</cardType>
<web>www.ocnistudio.cz</web>
<email/>
<phone>542216201, 724219181</phone>
<address>
<city>Brno</city>
<street>Nádražní</street>
<premise>654</premise>
<streetNumber>10</streetNumber>
<latitude>49.190865</latitude>
<longtitude>16.610725</longtitude>
<gpsStatus>OK</gpsStatus>
<coor>true</coor>
</address>
</benefit>
<benefit id="94">
<name>OČNÍ STUDIO ALEŠE ŽEJDLA</name>
<cardType>ISIC</cardType>
<cardType>ITIC</cardType>
<cardType>SPHERE</cardType>
<web>www.ocnistudio.cz</web>
<email/>
<phone>518342499, 725437150</phone>
<address>
<city>Hodonín</city>
<street>Štefánikova</street>
<premise>294</premise>
<streetNumber>1</streetNumber>
<latitude>48.8517</latitude>
<longtitude>17.127033</longtitude>
<gpsStatus>OK</gpsStatus>
<coor>true</coor>
</address>
</benefit>
<benefit id="95">
<name>Optika Formánková &amp; syn</name>
<cardType>ISIC</cardType>
<cardType>ITIC</cardType>
<cardType>IYTC</cardType>
<cardType>SCHOLAR</cardType>
<cardType>SPHERE</cardType>
<web>www.optika-formankova.cz</web>
<email>foptika@optika-formankova.cz</email>
<phone>775 770 774</phone>
<address>
<city>Ústí nad Labem</city>
<street>Revoluční</street>
<premise>1421</premise>
<streetNumber>4</streetNumber>
<latitude>50.659847</latitude>
<longtitude>14.039208</longtitude>
<gpsStatus>OK</gpsStatus>
<coor>true</coor>
</address>
</benefit>
<benefit id="96">
<name>Freestyle Area</name>
<cardType>ISIC</cardType>
<web>www.freestylearea.eu</web>
<email/>
<phone>+420 608 319 193</phone>
<address>
<city>Praha</city>
<street>Tiskařská</street>
<premise>257</premise>
<streetNumber>10</streetNumber>
<latitude>50.08202</latitude>
<longtitude>14.53335</longtitude>
<gpsStatus>OK</gpsStatus>
<coor>true</coor>
</address>
</benefit>
<benefit id="97">
<name>Pizzeria Siesta</name>
<cardType>ISIC</cardType>
<cardType>ITIC</cardType>
<cardType>IYTC</cardType>
<cardType>SCHOLAR</cardType>
<web>www.pizzeriasiesta.cz</web>
<email>pour.z@seznam.cz</email>
<phone>222 365 853, 605 174 546</phone>
<address>
<city>Praha</city>
<street>Na pískách</street>
<premise>###</premise>
<streetNumber>74</streetNumber>
<latitude>50.107033</latitude>
<longtitude>14.37413</longtitude>
<gpsStatus>OK</gpsStatus>
<coor>true</coor>
</address>
</benefit>
<benefit id="98">
<name>PAINTBALL ARENA BRNO</name>
<cardType>ISIC</cardType>
<cardType>SPHERE</cardType>
<web>www.paintball-brno.cz</web>
<email>info@paintball-brno.cz</email>
<phone>604253828</phone>
<address>
<city>Brno</city>
<street>Jana Babáka</street>
<premise>2733</premise>
<streetNumber>11</streetNumber>
<latitude>49.216526</latitude>
<longtitude>16.588175</longtitude>
<gpsStatus>OK</gpsStatus>
<coor>true</coor>
</address>
</benefit>
<benefit id="99">
<name>OČNÍ KLINIKA NEOVIZE BRNO</name>
<cardType>ISIC</cardType>
<cardType>ITIC</cardType>
<cardType>IYTC</cardType>
<cardType>SCHOLAR</cardType>
<cardType>SPHERE</cardType>
<web>www.neovize.cz</web>
<email>info@neovize.cz</email>
<phone>517 070 700, 775 858 700</phone>
<address>
<city>Brno</city>
<street>Viniční</street>
<premise>###</premise>
<streetNumber>216</streetNumber>
<latitude>49.198</latitude>
<longtitude>16.653057</longtitude>
<gpsStatus>OK</gpsStatus>
<coor>true</coor>
</address>
</benefit>
<benefit id="100">
<name>OČNÍ KLINIKA DUOVIZE PRAHA</name>
<cardType>ISIC</cardType>
<cardType>ITIC</cardType>
<cardType>IYTC</cardType>
<cardType>SCHOLAR</cardType>
<cardType>SPHERE</cardType>
<web>www.duovize.cz</web>
<email>info@duovize.cz</email>
<phone>223 009 068, 777 643 020</phone>
<address>
<city>Praha</city>
<street>Sokolská</street>
<premise>###</premise>
<streetNumber>35</streetNumber>
<latitude>50.07575</latitude>
<longtitude>14.428967</longtitude>
<gpsStatus>OK</gpsStatus>
<coor>true</coor>
</address>
</benefit>
<benefit id="101">
<name>Fit4Slim Praha Karlín</name>
<cardType>ISIC</cardType>
<cardType>ITIC</cardType>
<cardType>IYTC</cardType>
<cardType>SCHOLAR</cardType>
<web>www.fit4slim.cz</web>
<email>fit4slim@fit4slim.cz</email>
<phone>777 978 828</phone>
<address>
<city>Praha</city>
<street>Sokolovská</street>
<premise>1</premise>
<streetNumber>67</streetNumber>
<latitude>50.093445</latitude>
<longtitude>14.448233</longtitude>
<gpsStatus>OK</gpsStatus>
<coor>true</coor>
</address>
</benefit>
<benefit id="102">
<name>Fit4Slim Most</name>
<cardType>ISIC</cardType>
<cardType>ITIC</cardType>
<cardType>IYTC</cardType>
<cardType>SCHOLAR</cardType>
<web>www.fit4slim.cz</web>
<email>fit4slim@fit4slim.cz</email>
<phone>606 097 048</phone>
<address>
<city>Most</city>
<street>Lipová</street>
<premise>805</premise>
<streetNumber>8</streetNumber>
<latitude>50.492638</latitude>
<longtitude>13.64934</longtitude>
<gpsStatus>OK</gpsStatus>
<coor>true</coor>
</address>
</benefit>
<benefit id="103">
<name>Fit4Slim Benešov</name>
<cardType>ISIC</cardType>
<cardType>ITIC</cardType>
<cardType>IYTC</cardType>
<cardType>SCHOLAR</cardType>
<web>www.fit4slim.cz</web>
<email>fit4slim@fit4slim.cz</email>
<phone>734 408 005</phone>
<address>
<city>Benešov</city>
<street>Pražská</street>
<premise>295</premise>
<streetNumber>###</streetNumber>
<latitude>49.78422</latitude>
<longtitude>14.686179</longtitude>
<gpsStatus>OK</gpsStatus>
<coor>true</coor>
</address>
</benefit>
<benefit id="104">
<name>FAnn parfumérie</name>
<cardType>ISIC</cardType>
<cardType>ITIC</cardType>
<cardType>IYTC</cardType>
<cardType>SCHOLAR</cardType>
<web>www.fann.cz</web>
<email>bop@fann.cz</email>
<phone>553820101</phone>
<address>
<city>Opava</city>
<street>###</street>
<premise>###</premise>
<streetNumber>###</streetNumber>
<latitude>49.94066</latitude>
<longtitude>17.894798</longtitude>
<gpsStatus>OK</gpsStatus>
<coor>true</coor>
</address>
</benefit>
<benefit id="105">
<name>FAnn parfumérie</name>
<cardType>ISIC</cardType>
<cardType>ITIC</cardType>
<cardType>IYTC</cardType>
<cardType>SCHOLAR</cardType>
<cardType>SPHERE</cardType>
<web>www.fann.cz</web>
<email>ful@fann.cz</email>
<phone>475201323</phone>
<address>
<city>Ústí nad Labem</city>
<street>Bílinská</street>
<premise>3490</premise>
<streetNumber>6</streetNumber>
<latitude>50.658665</latitude>
<longtitude>14.041087</longtitude>
<gpsStatus>OK</gpsStatus>
<coor>true</coor>
</address>
</benefit>
<benefit id="106">
<name>FAnn parfumérie</name>
<cardType>ISIC</cardType>
<cardType>ITIC</cardType>
<cardType>IYTC</cardType>
<cardType>SCHOLAR</cardType>
<web>www.fann.cz</web>
<email>ahk@fann.cz</email>
<phone>495582874</phone>
<address>
<city>Hradec Kralove</city>
<street>Dukelská třída</street>
<premise>###</premise>
<streetNumber>1713</streetNumber>
<latitude>50.213665</latitude>
<longtitude>15.818741</longtitude>
<gpsStatus>OK</gpsStatus>
<coor>true</coor>
</address>
</benefit>
<benefit id="107">
<name>Faustův dům</name>
<cardType>ISIC</cardType>
<cardType>ITIC</cardType>
<cardType>IYTC</cardType>
<cardType>SCHOLAR</cardType>
<web>www.faustuvdum.eu</web>
<email>faustuvdummail@gmail.com</email>
<phone>776 860 005</phone>
<address>
<city>Olomouc</city>
<street>tř. Svornosti</street>
<premise>1177</premise>
<streetNumber>57</streetNumber>
<latitude>49.59332</latitude>
<longtitude>17.229254</longtitude>
<gpsStatus>OK</gpsStatus>
<coor>true</coor>
</address>
</benefit>
<benefit id="108">
<name>TS Bohemia - výpočetní technika</name>
<cardType>ISIC</cardType>
<cardType>ITIC</cardType>
<cardType>IYTC</cardType>
<cardType>SCHOLAR</cardType>
<web>www.tsbohemia.cz</web>
<email>ostravactp@tsbohemia.cz</email>
<phone>585 157 492</phone>
<address>
<city>Ostrava</city>
<street>Na Rovince</street>
<premise>873</premise>
<streetNumber>###</streetNumber>
<latitude>49.77146</latitude>
<longtitude>18.27014</longtitude>
<gpsStatus>OK</gpsStatus>
<coor>true</coor>
</address>
</benefit>
<benefit id="109">
<name>TS Bohemia - výpočetní technika</name>
<cardType>ISIC</cardType>
<cardType>ITIC</cardType>
<cardType>IYTC</cardType>
<cardType>SCHOLAR</cardType>
<web>www.tsbohemia.cz</web>
<email>ostrava@tsbohemia.cz</email>
<phone>585 157 532</phone>
<address>
<city>Ostrava</city>
<street>28. října</street>
<premise>2020</premise>
<streetNumber>231</streetNumber>
<latitude>49.82708</latitude>
<longtitude>18.252928</longtitude>
<gpsStatus>OK</gpsStatus>
<coor>true</coor>
</address>
</benefit>
<benefit id="110">
<name>Plavecký areál Zábřeh</name>
<cardType>ISIC</cardType>
<cardType>SCHOLAR</cardType>
<web>www.zabreh-bazen.cz</web>
<email>recepce@ekozabreh.cz</email>
<phone>583 550 361</phone>
<address>
<city>Zábřeh</city>
<street>Oborník</street>
<premise>608</premise>
<streetNumber>39</streetNumber>
<latitude>49.87677</latitude>
<longtitude>16.867418</longtitude>
<gpsStatus>OK</gpsStatus>
<coor>true</coor>
</address>
</benefit>
<benefit id="111">
<name>GIGACOMPUTER</name>
<cardType>ISIC</cardType>
<cardType>ITIC</cardType>
<cardType>IYTC</cardType>
<cardType>SCHOLAR</cardType>
<web>www.gigacomputer.cz</web>
<email>prodej.znojmo@gigacomputer.cz</email>
<phone/>
<address>
<city>Znojmo</city>
<street>Jana Palacha</street>
<premise>1265</premise>
<streetNumber>5</streetNumber>
<latitude>48.857456</latitude>
<longtitude>16.052858</longtitude>
<gpsStatus>OK</gpsStatus>
<coor>true</coor>
</address>
</benefit>
<benefit id="112">
<name>iWorld Store</name>
<cardType>ISIC</cardType>
<cardType>SCHOLAR</cardType>
<web>www.iworld-store.com</web>
<email>info@world-store.com</email>
<phone>230 233 024, 605 203 829</phone>
<address>
<city>Praha</city>
<street>28. října</street>
<premise>###</premise>
<streetNumber>2</streetNumber>
<latitude>50.08325</latitude>
<longtitude>14.42222</longtitude>
<gpsStatus>OK</gpsStatus>
<coor>true</coor>
</address>
</benefit>
<benefit id="113">
<name>Městské kulturní zařízení Uničov</name>
<cardType>ISIC</cardType>
<web>www.mkzunicov.cz</web>
<email>kino@mkzunicov.cz</email>
<phone>585 054 060</phone>
<address>
<city>Uničov</city>
<street>Moravské nám.</street>
<premise>1143</premise>
<streetNumber>###</streetNumber>
<latitude>49.77033</latitude>
<longtitude>17.112719</longtitude>
<gpsStatus>OK</gpsStatus>
<coor>true</coor>
</address>
</benefit>
<benefit id="114">
<name>iWant Apple Premium Reseller - IGY Centrum</name>
<cardType>ISIC</cardType>
<cardType>ITIC</cardType>
<cardType>IYTC</cardType>
<cardType>SCHOLAR</cardType>
<web>www.iwant.cz</web>
<email>marketing@iwant.cz</email>
<phone>387 310 201</phone>
<address>
<city>Ceske Budejovice</city>
<street>Pražská tř.</street>
<premise>1247</premise>
<streetNumber>24</streetNumber>
<latitude>48.98461</latitude>
<longtitude>14.471884</longtitude>
<gpsStatus>OK</gpsStatus>
<coor>true</coor>
</address>
</benefit>
<benefit id="115">
<name>iWant Apple Premium Reseller - Olympia Plzeň</name>
<cardType>ISIC</cardType>
<web>www.iwant.cz</web>
<email>marketing@iwant.cz</email>
<phone>377 430 044</phone>
<address>
<city>Plzen</city>
<street>Písecká</street>
<premise>972</premise>
<streetNumber>1</streetNumber>
<latitude>49.70106</latitude>
<longtitude>13.425847</longtitude>
<gpsStatus>OK</gpsStatus>
<coor>true</coor>
</address>
</benefit>
<benefit id="116">
<name>iWant Apple Premium Reseller</name>
<cardType>ISIC</cardType>
<cardType>ITIC</cardType>
<cardType>IYTC</cardType>
<cardType>SCHOLAR</cardType>
<web>www.iwant.cz</web>
<email>marketing@iwant.cz</email>
<phone>353 231 999</phone>
<address>
<city>Carlsbad</city>
<street>T. G. Masaryka</street>
<premise>2023</premise>
<streetNumber>10</streetNumber>
<latitude>50.229523</latitude>
<longtitude>12.872255</longtitude>
<gpsStatus>OK</gpsStatus>
<coor>true</coor>
</address>
</benefit>
<benefit id="117">
<name>iWant Apple Premium Reseller</name>
<cardType>ISIC</cardType>
<cardType>ITIC</cardType>
<cardType>IYTC</cardType>
<cardType>SCHOLAR</cardType>
<web>www.iwant.cz</web>
<email>marketing@iwant.cz</email>
<phone/>
<address>
<city>Pardubice</city>
<street>Masarykovo náměstí</street>
<premise>2799</premise>
<streetNumber>###</streetNumber>
<latitude>50.037067</latitude>
<longtitude>15.76887</longtitude>
<gpsStatus>OK</gpsStatus>
<coor>true</coor>
</address>
</benefit>
<benefit id="118">
<name>Městský plavecký areál Tipsport Laguna</name>
<cardType>ISIC</cardType>
<cardType>SCHOLAR</cardType>
<web>www.tipsportlaguna.cz</web>
<email>info@tipsportlaguna.cz</email>
<phone>311 514 401</phone>
<address>
<city>Beroun</city>
<street>Na Ostrově</street>
<premise>900</premise>
<streetNumber>###</streetNumber>
<latitude>49.962906</latitude>
<longtitude>14.079644</longtitude>
<gpsStatus>OK</gpsStatus>
<coor>true</coor>
</address>
</benefit>
<benefit id="119">
<name>K3 Bohumín, příspěvková organizace - Knihovna</name>
<cardType>ISIC</cardType>
<cardType>SCHOLAR</cardType>
<web>www.k3bohumin.cz</web>
<email>k3@k3bohumin.cz</email>
<phone>596 013 027</phone>
<address>
<city>Novy Bohumin</city>
<street>Vrchlického</street>
<premise>###</premise>
<streetNumber>###</streetNumber>
<latitude>49.90454</latitude>
<longtitude>18.35969</longtitude>
<gpsStatus>OK</gpsStatus>
<coor>true</coor>
</address>
</benefit>
<benefit id="120">
<name>Starbucks I. P. Pavlova</name>
<cardType>ISIC</cardType>
<web>www.starbuckscoffee.cz</web>
<email>starbucks_info_@amrest.eu</email>
<phone>235 013 533, 702 021 698</phone>
<address>
<city>Praha</city>
<street>Jugoslávská</street>
<premise>2</premise>
<streetNumber>5</streetNumber>
<latitude>50.075626</latitude>
<longtitude>14.431135</longtitude>
<gpsStatus>OK</gpsStatus>
<coor>true</coor>
</address>
</benefit>
<benefit id="121">
<name>Starbucks Palladium Kiosk</name>
<cardType>ISIC</cardType>
<web>www.starbuckscoffee.cz</web>
<email>starbucks_info_@amrest.eu</email>
<phone>235 013 502, 725 526 644</phone>
<address>
<city>Praha</city>
<street>náměstí Republiky</street>
<premise>1078</premise>
<streetNumber>1</streetNumber>
<latitude>50.089283</latitude>
<longtitude>14.42856</longtitude>
<gpsStatus>OK</gpsStatus>
<coor>true</coor>
</address>
</benefit>
<benefit id="122">
<name>Starbucks Malostranská</name>
<cardType>ISIC</cardType>
<web>www.starbuckscoffee.cz</web>
<email>starbucks_info_@amrest.eu</email>
<phone>235 013 500, 725 562 767</phone>
<address>
<city>Praha</city>
<street>Malostranské náměstí</street>
<premise>1</premise>
<streetNumber>16</streetNumber>
<latitude>50.088642</latitude>
<longtitude>14.402775</longtitude>
<gpsStatus>OK</gpsStatus>
<coor>true</coor>
</address>
</benefit>
<benefit id="123">
<name>Starbucks Avion Zličín</name>
<cardType>ISIC</cardType>
<web>www.starbuckscoffee.cz</web>
<email>starbucks_info_@amrest.eu</email>
<phone>235 013 515, 725 768 339</phone>
<address>
<city>Praha</city>
<street>Skandinávská</street>
<premise>145</premise>
<streetNumber>13</streetNumber>
<latitude>50.049656</latitude>
<longtitude>14.297611</longtitude>
<gpsStatus>OK</gpsStatus>
<coor>true</coor>
</address>
</benefit>
<benefit id="124">
<name>Starbucks Staroměstská</name>
<cardType>ISIC</cardType>
<web>www.starbuckscoffee.cz</web>
<email>starbucks_info_@amrest.eu</email>
<phone>235 013 516, 602 424 154</phone>
<address>
<city>Praha</city>
<street>Old Town Square</street>
<premise>478</premise>
<streetNumber>26</streetNumber>
<latitude>50.086544</latitude>
<longtitude>14.420792</longtitude>
<gpsStatus>OK</gpsStatus>
<coor>true</coor>
</address>
</benefit>
<benefit id="125">
<name>Starbucks Palác Archa</name>
<cardType>ISIC</cardType>
<web>www.starbuckscoffee.cz</web>
<email>starbucks_info_@amrest.eu</email>
<phone>235 013 512, 602 757 247</phone>
<address>
<city>Praha</city>
<street>Na Poříčí</street>
<premise>1046</premise>
<streetNumber>24</streetNumber>
<latitude>50.089714</latitude>
<longtitude>14.433641</longtitude>
<gpsStatus>OK</gpsStatus>
<coor>true</coor>
</address>
</benefit>
<benefit id="126">
<name>Starbucks Václavské náměstí</name>
<cardType>ISIC</cardType>
<web>www.starbuckscoffee.cz</web>
<email>starbucks_info_@amrest.eu</email>
<phone>235 013 517, 725 800 358</phone>
<address>
<city>Praha</city>
<street>Wenceslas Square</street>
<premise>###</premise>
<streetNumber>40</streetNumber>
<latitude>50.08145</latitude>
<longtitude>14.42675</longtitude>
<gpsStatus>OK</gpsStatus>
<coor>true</coor>
</address>
</benefit>
<benefit id="127">
<name>Starbucks Václavské náměstí 57</name>
<cardType>ISIC</cardType>
<web>www.starbuckscoffee.cz</web>
<email>starbucks_info_@amrest.eu</email>
<phone>235 013 533, 702 021 698</phone>
<address>
<city>Hl.m. Praha</city>
<street>Wenceslas Square</street>
<premise>###</premise>
<streetNumber>57</streetNumber>
<latitude>50.07998</latitude>
<longtitude>14.429892</longtitude>
<gpsStatus>OK</gpsStatus>
<coor>true</coor>
</address>
</benefit>
<benefit id="128">
<name>Starbucks Chodov Mall</name>
<cardType>ISIC</cardType>
<web>www.starbuckscoffee.cz</web>
<email>starbucks_info_@amrest.eu</email>
<phone>235 013 519, 725 881 347</phone>
<address>
<city>Praha</city>
<street>Roztylská</street>
<premise>2321</premise>
<streetNumber>19</streetNumber>
<latitude>50.03207</latitude>
<longtitude>14.490996</longtitude>
<gpsStatus>OK</gpsStatus>
<coor>true</coor>
</address>
</benefit>
<benefit id="129">
<name>Starbucks Metropole Zličín</name>
<cardType>ISIC</cardType>
<web>www.starbuckscoffee.cz</web>
<email>starbucks_info_@amrest.eu</email>
<phone>235 013 521, 725 836 698</phone>
<address>
<city>Praha</city>
<street>Řevnická</street>
<premise>121</premise>
<streetNumber>1</streetNumber>
<latitude>50.053295</latitude>
<longtitude>14.287548</longtitude>
<gpsStatus>OK</gpsStatus>
<coor>true</coor>
</address>
</benefit>
<benefit id="130">
<name>Starbucks Dejvická</name>
<cardType>ISIC</cardType>
<web>www.starbuckscoffee.cz</web>
<email>starbucks_info_@amrest.eu</email>
<phone>235 013 525, 725 429 402</phone>
<address>
<city>Praha</city>
<street>Vítězné náměstí</street>
<premise>577</premise>
<streetNumber>2</streetNumber>
<latitude>50.09969</latitude>
<longtitude>14.396013</longtitude>
<gpsStatus>OK</gpsStatus>
<coor>true</coor>
</address>
</benefit>
<benefit id="131">
<name>Starbucks Černý Most</name>
<cardType>ISIC</cardType>
<web>www.starbuckscoffee.cz</web>
<email>starbucks_info_@amrest.eu</email>
<phone>235 013 537, 702 201 540</phone>
<address>
<city>Praha</city>
<street>Chlumecká</street>
<premise>765</premise>
<streetNumber>6</streetNumber>
<latitude>50.10865</latitude>
<longtitude>14.586623</longtitude>
<gpsStatus>OK</gpsStatus>
<coor>true</coor>
</address>
</benefit>
<benefit id="132">
<name>Starbucks Pražský Hrad</name>
<cardType>ISIC</cardType>
<web>www.starbuckscoffee.cz</web>
<email>starbucks_info_@amrest.eu</email>
<phone>235 013 536, 702 200 986</phone>
<address>
<city>Praha</city>
<street>Hradčanské náměstí</street>
<premise>###</premise>
<streetNumber>###</streetNumber>
<latitude>50.089428</latitude>
<longtitude>14.397097</longtitude>
<gpsStatus>OK</gpsStatus>
<coor>true</coor>
</address>
</benefit>
<benefit id="133">
<name>Starbucks Nová Karolina</name>
<cardType>ISIC</cardType>
<web>www.starbuckscoffee.cz</web>
<email>starbucks_info_@amrest.eu</email>
<phone>235 013 530, 724 894 035</phone>
<address>
<city>Ostrava</city>
<street>Jantarová</street>
<premise>###</premise>
<streetNumber>###</streetNumber>
<latitude>49.830704</latitude>
<longtitude>18.286716</longtitude>
<gpsStatus>OK</gpsStatus>
<coor>true</coor>
</address>
</benefit>
<benefit id="134">
<name>Starbucks Avion Ostrava</name>
<cardType>ISIC</cardType>
<web>www.starbuckscoffee.cz</web>
<email>starbucks_info_@amrest.eu</email>
<phone>235 013 538, 702 202 793</phone>
<address>
<city>Ostrava</city>
<street>Rudná</street>
<premise>3114</premise>
<streetNumber>114</streetNumber>
<latitude>49.802017</latitude>
<longtitude>18.227972</longtitude>
<gpsStatus>OK</gpsStatus>
<coor>true</coor>
</address>
</benefit>
<benefit id="135">
<name>SOPHIA, jazykové služby</name>
<cardType>ISIC</cardType>
<cardType>ITIC</cardType>
<cardType>IYTC</cardType>
<cardType>SCHOLAR</cardType>
<web>www.sophia-cb.cz</web>
<email>vyuka@sophia-cb.cz</email>
<phone>386 102 788, 608 112 988</phone>
<address>
<city>Ceske Budejovice</city>
<street>Hroznová</street>
<premise>253</premise>
<streetNumber>28</streetNumber>
<latitude>48.976147</latitude>
<longtitude>14.474392</longtitude>
<gpsStatus>OK</gpsStatus>
<coor>true</coor>
</address>
</benefit>
<benefit id="136">
<name>Daniels Donuts - OG Mortiz</name>
<cardType>ISIC</cardType>
<cardType>ITIC</cardType>
<cardType>IYTC</cardType>
<cardType>SCHOLAR</cardType>
<web>www.daniels-donuts.eu</web>
<email>info@daniels-donuts.eu</email>
<phone>775 366 200</phone>
<address>
<city>Olomouc</city>
<street>8. května</street>
<premise>465</premise>
<streetNumber>24</streetNumber>
<latitude>49.595287</latitude>
<longtitude>17.25015</longtitude>
<gpsStatus>OK</gpsStatus>
<coor>true</coor>
</address>
</benefit>
<benefit id="137">
<name>Daniels Donuts - OC Olympia</name>
<cardType>ISIC</cardType>
<cardType>ITIC</cardType>
<cardType>IYTC</cardType>
<cardType>SCHOLAR</cardType>
<web>www.daniels-donuts.eu</web>
<email>info@daniels-donuts.eu</email>
<phone>775 766 361</phone>
<address>
<city>Olomouc</city>
<street>Olomoucká</street>
<premise>90</premise>
<streetNumber>90</streetNumber>
<latitude>49.62545</latitude>
<longtitude>17.3661</longtitude>
<gpsStatus>OK</gpsStatus>
<coor>true</coor>
</address>
</benefit>
<benefit id="138">
<name>Daniels Donuts - ZOO Olomouc</name>
<cardType>ISIC</cardType>
<cardType>ITIC</cardType>
<cardType>IYTC</cardType>
<cardType>SCHOLAR</cardType>
<web>www.daniels-donuts.eu</web>
<email>info@daniels-donuts.eu</email>
<phone>775 766 361</phone>
<address>
<city>Olomouc</city>
<street>Darwinova</street>
<premise>###</premise>
<streetNumber>###</streetNumber>
<latitude>49.632637</latitude>
<longtitude>17.343872</longtitude>
<gpsStatus>OK</gpsStatus>
<coor>true</coor>
</address>
</benefit>
<benefit id="139">
<name>Daniels Donuts - Výstaviště Flóra</name>
<cardType>ISIC</cardType>
<cardType>ITIC</cardType>
<cardType>IYTC</cardType>
<cardType>SCHOLAR</cardType>
<web>www.daniels-donuts.eu</web>
<email>info@daniels-donuts.eu</email>
<phone>775 766 361</phone>
<address>
<city>Olomouc</city>
<street>Wolkerova</street>
<premise>37</premise>
<streetNumber>17</streetNumber>
<latitude>49.588398</latitude>
<longtitude>17.245518</longtitude>
<gpsStatus>OK</gpsStatus>
<coor>true</coor>
</address>
</benefit>
<benefit id="140">
<name>Salvia - lékárna</name>
<cardType>ISIC</cardType>
<web>www.salviazlin.cz</web>
<email>lekarna@salviazlin.cz</email>
<phone>+420 577 221 511</phone>
<address>
<city>Zlin</city>
<street>třída Tomáše Bati</street>
<premise>###</premise>
<streetNumber>3119</streetNumber>
<latitude>49.225533</latitude>
<longtitude>17.6669</longtitude>
<gpsStatus>OK</gpsStatus>
<coor>true</coor>
</address>
</benefit>
<benefit id="141">
<name>Camp Leaders</name>
<cardType>ISIC</cardType>
<cardType>ITIC</cardType>
<cardType>IYTC</cardType>
<cardType>SCHOLAR</cardType>
<web>www.campleaders.cz</web>
<email>czech@campleaders.com</email>
<phone>+420 728 345 284</phone>
<address>
<city>Praha</city>
<street>Tyršova</street>
<premise>1832</premise>
<streetNumber>7</streetNumber>
<latitude>50.073013</latitude>
<longtitude>14.430848</longtitude>
<gpsStatus>OK</gpsStatus>
<coor>true</coor>
</address>
</benefit>
<benefit id="142">
<name>Subway - Zelný Trh</name>
<cardType>ISIC</cardType>
<cardType>ITIC</cardType>
<cardType>IYTC</cardType>
<cardType>SCHOLAR</cardType>
<web>www.subwaysandwiches.cz, www.subway.cz</web>
<email>info@subwaycentrumbrna.cz</email>
<phone>608 875 955</phone>
<address>
<city>Brno</city>
<street>Zelný trh</street>
<premise>318</premise>
<streetNumber>1</streetNumber>
<latitude>49.192837</latitude>
<longtitude>16.609789</longtitude>
<gpsStatus>OK</gpsStatus>
<coor>true</coor>
</address>
</benefit>
<benefit id="143">
<name>Subway - OC Forum Nová Karolina</name>
<cardType>ISIC</cardType>
<cardType>ITIC</cardType>
<cardType>IYTC</cardType>
<cardType>SCHOLAR</cardType>
<web>www.subwaynovakarolina.cz</web>
<email>info@subwaynovakarolina.cz</email>
<phone>602 369 022</phone>
<address>
<city>Ostrava</city>
<street>Jantarová</street>
<premise>###</premise>
<streetNumber>###</streetNumber>
<latitude>49.830704</latitude>
<longtitude>18.286716</longtitude>
<gpsStatus>OK</gpsStatus>
<coor>true</coor>
</address>
</benefit>
<benefit id="144">
<name>Subway - Archa Palace</name>
<cardType>ISIC</cardType>
<cardType>ITIC</cardType>
<cardType>IYTC</cardType>
<cardType>SCHOLAR</cardType>
<web>www.subwaysandwiches.cz, www.subway.cz</web>
<email>kosard@seznam.cz</email>
<phone>606 304 607</phone>
<address>
<city>Praha</city>
<street>Na Poříčí</street>
<premise>1047</premise>
<streetNumber>26</streetNumber>
<latitude>50.08949</latitude>
<longtitude>14.434096</longtitude>
<gpsStatus>OK</gpsStatus>
<coor>true</coor>
</address>
</benefit>
<benefit id="145">
<name>Státní zámek Náchod</name>
<cardType>ISIC</cardType>
<cardType>SCHOLAR</cardType>
<web>www.zameknachod.cz</web>
<email>objednávky.nachod@josefov.npu.cz</email>
<phone>491 426 201</phone>
<address>
<city>Nachod</city>
<street>###</street>
<premise>###</premise>
<streetNumber>###</streetNumber>
<latitude>50.414574</latitude>
<longtitude>16.165634</longtitude>
<gpsStatus>OK</gpsStatus>
<coor>true</coor>
</address>
</benefit>
<benefit id="146">
<name>Hospital Kuks</name>
<cardType>ISIC</cardType>
<cardType>SCHOLAR</cardType>
<web>www.hospital-kuks.cz</web>
<email>hospital.kuks@josefov.npu.cz</email>
<phone>499 692 161, 724 663 535</phone>
<address>
<city>Kuks</city>
<street>###</street>
<premise>###</premise>
<streetNumber>###</streetNumber>
<latitude>50.40149</latitude>
<longtitude>15.888222</longtitude>
<gpsStatus>OK</gpsStatus>
<coor>true</coor>
</address>
</benefit>
<benefit id="147">
<name>Státní zámek Slatiňany</name>
<cardType>EYCA</cardType>
<cardType>ISIC</cardType>
<cardType>SCHOLAR</cardType>
<web>www.zamek-slatinany.cz</web>
<email>slatinany@pardubice.npu.cz</email>
<phone>469 681 112</phone>
<address>
<city>Slatiňany</city>
<street>###</street>
<premise>###</premise>
<streetNumber>###</streetNumber>
<latitude>49.921097</latitude>
<longtitude>15.813773</longtitude>
<gpsStatus>OK</gpsStatus>
<coor>true</coor>
</address>
</benefit>
<benefit id="148">
<name>Zámek Litomyšl, NKP, UNESCO</name>
<cardType>EYCA</cardType>
<cardType>ISIC</cardType>
<cardType>SCHOLAR</cardType>
<web>www.zamek-litomysl.cz</web>
<email>litomysl@pardubice.npu.cz</email>
<phone>461 615 067, 775 422 218</phone>
<address>
<city>Litomysl</city>
<street>###</street>
<premise>###</premise>
<streetNumber>###</streetNumber>
<latitude>49.87052</latitude>
<longtitude>16.311062</longtitude>
<gpsStatus>OK</gpsStatus>
<coor>true</coor>
</address>
</benefit>
<benefit id="149">
<name>Státní zámek Velké Losiny</name>
<cardType>ISIC</cardType>
<cardType>SCHOLAR</cardType>
<web>www.zamek-losiny.cz</web>
<email>velkelosiny@olomou.npu.cz</email>
<phone>583 248 380</phone>
<address>
<city>Velké Losiny</city>
<street>###</street>
<premise>###</premise>
<streetNumber>###</streetNumber>
<latitude>50.03197</latitude>
<longtitude>17.040586</longtitude>
<gpsStatus>OK</gpsStatus>
<coor>true</coor>
</address>
</benefit>
<benefit id="150">
<name>Soubor staveb lidové architektury v Příkazích</name>
<cardType>ISIC</cardType>
<cardType>SCHOLAR</cardType>
<web>www.hanackeskanzen.cz</web>
<email>svec@olomouc.npu.cz</email>
<phone>776 576 598</phone>
<address>
<city>Příkazy</city>
<street>###</street>
<premise>###</premise>
<streetNumber>###</streetNumber>
<latitude>49.642372</latitude>
<longtitude>17.148205</longtitude>
<gpsStatus>OK</gpsStatus>
<coor>true</coor>
</address>
</benefit>
<benefit id="151">
<name>Scio</name>
<cardType>ISIC</cardType>
<cardType>SCHOLAR</cardType>
<web>www.scio.cz</web>
<email/>
<phone/>
<address>
<city>Birmingham</city>
<street>Grandview Pkwy</street>
<premise>###</premise>
<streetNumber>3660</streetNumber>
<latitude>33.433273</latitude>
<longtitude>-86.72247</longtitude>
<gpsStatus>OK</gpsStatus>
<coor>true</coor>
</address>
</benefit>
<benefit id="152">
<name>GM Eletronic</name>
<cardType>ISIC</cardType>
<cardType>ITIC</cardType>
<cardType>IYTC</cardType>
<cardType>SCHOLAR</cardType>
<web>www.gme.cz</web>
<email>marketing@gme.cz</email>
<phone>226 535 172</phone>
<address>
<city>Brno</city>
<street>Koliště</street>
<premise>280</premise>
<streetNumber>67</streetNumber>
<latitude>49.193913</latitude>
<longtitude>16.616505</longtitude>
<gpsStatus>OK</gpsStatus>
<coor>true</coor>
</address>
</benefit>
<benefit id="153">
<name>GM Eletronic</name>
<cardType>ISIC</cardType>
<cardType>ITIC</cardType>
<cardType>IYTC</cardType>
<cardType>SCHOLAR</cardType>
<web>www.gme.cz</web>
<email>marketing@gme.cz</email>
<phone>555 308 793</phone>
<address>
<city>Ostrava</city>
<street>Dlouhá</street>
<premise>8</premise>
<streetNumber>8</streetNumber>
<latitude>49.84449</latitude>
<longtitude>18.196005</longtitude>
<gpsStatus>OK</gpsStatus>
<coor>true</coor>
</address>
</benefit>
<benefit id="154">
<name>GM Eletronic</name>
<cardType>ISIC</cardType>
<cardType>ITIC</cardType>
<cardType>IYTC</cardType>
<cardType>SCHOLAR</cardType>
<web>www.gme.cz</web>
<email>marketing@gme.cz</email>
<phone>378 405 801</phone>
<address>
<city>Plzen</city>
<street>Korandova</street>
<premise>###</premise>
<streetNumber>4</streetNumber>
<latitude>49.744972</latitude>
<longtitude>13.365216</longtitude>
<gpsStatus>OK</gpsStatus>
<coor>true</coor>
</address>
</benefit>
<benefit id="155">
<name>GM Eletronic</name>
<cardType>ISIC</cardType>
<cardType>ITIC</cardType>
<cardType>IYTC</cardType>
<cardType>SCHOLAR</cardType>
<web>www.gme.cz</web>
<email>marketing@gme.cz</email>
<phone>226 535 172</phone>
<address>
<city>Praha</city>
<street>Thámova</street>
<premise>147</premise>
<streetNumber>15</streetNumber>
<latitude>50.092785</latitude>
<longtitude>14.451812</longtitude>
<gpsStatus>OK</gpsStatus>
<coor>true</coor>
</address>
</benefit>
<benefit id="156">
<name>GM Eletronic</name>
<cardType>ISIC</cardType>
<cardType>ITIC</cardType>
<cardType>IYTC</cardType>
<cardType>SCHOLAR</cardType>
<web>www.gme.cz</web>
<email>marketing@gme.cz</email>
<phone>491 201514</phone>
<address>
<city>Hradec Kralove</city>
<street>###</street>
<premise>###</premise>
<streetNumber>###</streetNumber>
<latitude>50.21036</latitude>
<longtitude>15.825211</longtitude>
<gpsStatus>OK</gpsStatus>
<coor>true</coor>
</address>
</benefit>
<benefit id="157">
<name>Komerční banka</name>
<cardType>ISIC</cardType>
<web>www.kb,cz, www.g2.cz</web>
<email>info@isic.cz</email>
<phone/>
<address>
<city>Malá Úpa</city>
<street>###</street>
<premise>###</premise>
<streetNumber>###</streetNumber>
<latitude>50.75528</latitude>
<longtitude>15.8127775</longtitude>
<gpsStatus>OK</gpsStatus>
<coor>true</coor>
</address>
</benefit>
<benefit id="158">
<name>D-Sport</name>
<cardType>ISIC</cardType>
<cardType>ITIC</cardType>
<cardType>IYTC</cardType>
<cardType>SCHOLAR</cardType>
<web>www.dsport.eu</web>
<email>budejovice.decko@seznam.cz</email>
<phone>386 350 478, 730 518 340</phone>
<address>
<city>Ceske Budejovice</city>
<street>Dr. Stejskala</street>
<premise>439</premise>
<streetNumber>14</streetNumber>
<latitude>48.97258</latitude>
<longtitude>14.474377</longtitude>
<gpsStatus>OK</gpsStatus>
<coor>true</coor>
</address>
</benefit>
<benefit id="159">
<name>D-Sport</name>
<cardType>ISIC</cardType>
<cardType>ITIC</cardType>
<cardType>IYTC</cardType>
<cardType>SCHOLAR</cardType>
<web>www.dsport.eu</web>
<email>pribram.decko@seznam.cz</email>
<phone>318 677 109, 730 515 563</phone>
<address>
<city>Příbram</city>
<street>4</street>
<premise>4</premise>
<streetNumber>###</streetNumber>
<latitude>49.456566</latitude>
<longtitude>14.065224</longtitude>
<gpsStatus>OK</gpsStatus>
<coor>true</coor>
</address>
</benefit>
<benefit id="160">
<name>D-Sport</name>
<cardType>ISIC</cardType>
<cardType>ITIC</cardType>
<cardType>IYTC</cardType>
<cardType>SCHOLAR</cardType>
<web>www.dsport.eu</web>
<email>hradec.decko@seznam.cz</email>
<phone>495 591 591, 730 518 339</phone>
<address>
<city>Hradec Kralove</city>
<street>Masarykovo náměstí</street>
<premise>536</premise>
<streetNumber>3</streetNumber>
<latitude>50.211563</latitude>
<longtitude>15.824494</longtitude>
<gpsStatus>OK</gpsStatus>
<coor>true</coor>
</address>
</benefit>
<benefit id="161">
<name>D-Sport</name>
<cardType>ISIC</cardType>
<cardType>ITIC</cardType>
<cardType>IYTC</cardType>
<cardType>SCHOLAR</cardType>
<web>www.dsport.eu</web>
<email>chomutov.decko@seznam.cz</email>
<phone>413 034 371, 730 518 342</phone>
<address>
<city>Chomutov</city>
<street>Palackého</street>
<premise>4503</premise>
<streetNumber>###</streetNumber>
<latitude>50.462315</latitude>
<longtitude>13.412095</longtitude>
<gpsStatus>OK</gpsStatus>
<coor>true</coor>
</address>
</benefit>
<benefit id="162">
<name>D-Sport</name>
<cardType>ISIC</cardType>
<cardType>ITIC</cardType>
<cardType>IYTC</cardType>
<cardType>SCHOLAR</cardType>
<web>www.dsport.eu</web>
<email>trebovice.decko{seznam.cz</email>
<phone>596 632 564, 730 515 559</phone>
<address>
<city>Ostrava</city>
<street>Sjízdná</street>
<premise>###</premise>
<streetNumber>###</streetNumber>
<latitude>49.82766</latitude>
<longtitude>18.198923</longtitude>
<gpsStatus>OK</gpsStatus>
<coor>true</coor>
</address>
</benefit>
<benefit id="163">
<name>D-Sport</name>
<cardType>ISIC</cardType>
<cardType>ITIC</cardType>
<cardType>IYTC</cardType>
<cardType>SCHOLAR</cardType>
<web>www.dsport.eu</web>
<email>plzen.decko@seznam.cz</email>
<phone>377 331 227, 730 515 568</phone>
<address>
<city>Plzen</city>
<street>U Letiště</street>
<premise>1074</premise>
<streetNumber>2</streetNumber>
<latitude>49.728245</latitude>
<longtitude>13.343273</longtitude>
<gpsStatus>OK</gpsStatus>
<coor>true</coor>
</address>
</benefit>
<benefit id="164">
<name>D-Sport</name>
<cardType>ISIC</cardType>
<cardType>ITIC</cardType>
<cardType>IYTC</cardType>
<cardType>SCHOLAR</cardType>
<web>www.dsport.eu</web>
<email>havirov.decko@seznam.cz</email>
<phone>553 034 230, 730 515 560</phone>
<address>
<city>Havířov</city>
<street>Železničářů</street>
<premise>1303</premise>
<streetNumber>8</streetNumber>
<latitude>49.791454</latitude>
<longtitude>18.4198</longtitude>
<gpsStatus>OK</gpsStatus>
<coor>true</coor>
</address>
</benefit>
<benefit id="165">
<name>D-Sport</name>
<cardType>ISIC</cardType>
<cardType>ITIC</cardType>
<cardType>IYTC</cardType>
<cardType>SCHOLAR</cardType>
<web>www.dsport.eu</web>
<email>boleslav2.decko@seznam.cz</email>
<phone>326 329 940, 730 518 336</phone>
<address>
<city>Mlada Boleslav</city>
<street>Jičínská</street>
<premise>1350</premise>
<streetNumber>###</streetNumber>
<latitude>50.408283</latitude>
<longtitude>14.940704</longtitude>
<gpsStatus>OK</gpsStatus>
<coor>true</coor>
</address>
</benefit>
<benefit id="166">
<name>D-Sport</name>
<cardType>ISIC</cardType>
<cardType>ITIC</cardType>
<cardType>IYTC</cardType>
<cardType>SCHOLAR</cardType>
<web>www.dsport.eu</web>
<email>koprivnice.decko@seznam.cz</email>
<phone>556 812 250</phone>
<address>
<city>Kopřivnice</city>
<street>Štefánikova</street>
<premise>###</premise>
<streetNumber>1124</streetNumber>
<latitude>49.60053</latitude>
<longtitude>18.147444</longtitude>
<gpsStatus>OK</gpsStatus>
<coor>true</coor>
</address>
</benefit>
<benefit id="167">
<name>D-Sport</name>
<cardType>ISIC</cardType>
<cardType>ITIC</cardType>
<cardType>IYTC</cardType>
<cardType>SCHOLAR</cardType>
<web>www.dsport.eu</web>
<email>mistek1.decko@seznam.cz</email>
<phone>558 638 270, 730 518 337</phone>
<address>
<city>Frýdek-Místek</city>
<street>Hlavní třída</street>
<premise>106</premise>
<streetNumber>###</streetNumber>
<latitude>49.674168</latitude>
<longtitude>18.341484</longtitude>
<gpsStatus>OK</gpsStatus>
<coor>true</coor>
</address>
</benefit>
<benefit id="168">
<name>D-Sport</name>
<cardType>ISIC</cardType>
<cardType>ITIC</cardType>
<cardType>IYTC</cardType>
<cardType>SCHOLAR</cardType>
<web>www.dsport.eu</web>
<email>teplice.decko@seznam.cz</email>
<phone>417 531 406, 730 51 55 65</phone>
<address>
<city>Teplice</city>
<street>Srbická</street>
<premise>464</premise>
<streetNumber>###</streetNumber>
<latitude>50.66104</latitude>
<longtitude>13.863714</longtitude>
<gpsStatus>OK</gpsStatus>
<coor>true</coor>
</address>
</benefit>
<benefit id="169">
<name>D-Sport</name>
<cardType>ISIC</cardType>
<cardType>ITIC</cardType>
<cardType>IYTC</cardType>
<cardType>SCHOLAR</cardType>
<web>www.dsport.eu</web>
<email>kladno.decko@seznam.cz</email>
<phone>313 034 781, 730 515 567</phone>
<address>
<city>Kladno</city>
<street>Arménská</street>
<premise>###</premise>
<streetNumber>###</streetNumber>
<latitude>50.13438</latitude>
<longtitude>14.137644</longtitude>
<gpsStatus>OK</gpsStatus>
<coor>true</coor>
</address>
</benefit>
<benefit id="170">
<name>D-Sport</name>
<cardType>ISIC</cardType>
<cardType>ITIC</cardType>
<cardType>IYTC</cardType>
<cardType>SCHOLAR</cardType>
<web>www.dsport.eu</web>
<email>novakarolina.decko@seznam.cz</email>
<phone>734 233 821</phone>
<address>
<city>Ostrava</city>
<street>Jantarová</street>
<premise>###</premise>
<streetNumber>###</streetNumber>
<latitude>49.830704</latitude>
<longtitude>18.286716</longtitude>
<gpsStatus>OK</gpsStatus>
<coor>true</coor>
</address>
</benefit>
<benefit id="171">
<name>D-Sport</name>
<cardType>ISIC</cardType>
<cardType>ITIC</cardType>
<cardType>IYTC</cardType>
<cardType>SCHOLAR</cardType>
<web>www.dsport.eu</web>
<email>novyjicin.decko@seznam.cz</email>
<phone>556 701 588</phone>
<address>
<city>Novy Jicin</city>
<street>K Nemocnici</street>
<premise>209</premise>
<streetNumber>5</streetNumber>
<latitude>49.59293</latitude>
<longtitude>18.011986</longtitude>
<gpsStatus>OK</gpsStatus>
<coor>true</coor>
</address>
</benefit>
<benefit id="172">
<name>D-Sport</name>
<cardType>ISIC</cardType>
<cardType>ITIC</cardType>
<cardType>IYTC</cardType>
<cardType>SCHOLAR</cardType>
<web>www.dsport.eu</web>
<email>decin.decko@seznam.cz</email>
<phone>413 034 381, 730 518 341</phone>
<address>
<city>Decin</city>
<street>Ústecká</street>
<premise>###</premise>
<streetNumber>1905/8</streetNumber>
<latitude>50.769997</latitude>
<longtitude>14.208069</longtitude>
<gpsStatus>OK</gpsStatus>
<coor>true</coor>
</address>
</benefit>
<benefit id="173">
<name>Albi a.s.</name>
<cardType>EYCA</cardType>
<cardType>ISIC</cardType>
<cardType>ITIC</cardType>
<cardType>IYTC</cardType>
<cardType>SCHOLAR</cardType>
<cardType>SPHERE</cardType>
<web>www.albi.cz</web>
<email>liberec.plaza@albi.cz</email>
<phone>485 104 345</phone>
<address>
<city>Liberec</city>
<street>Palachova</street>
<premise>###</premise>
<streetNumber>1404</streetNumber>
<latitude>50.769646</latitude>
<longtitude>15.060519</longtitude>
<gpsStatus>OK</gpsStatus>
<coor>true</coor>
</address>
</benefit>
<benefit id="174">
<name>D-Sport</name>
<cardType>ISIC</cardType>
<cardType>ITIC</cardType>
<cardType>IYTC</cardType>
<cardType>SCHOLAR</cardType>
<web>www.dsport.eu</web>
<email>olomouc.decko@seznam.cz</email>
<phone>585 203 659, 730 518 338</phone>
<address>
<city>Olomouc</city>
<street>Horní náměstí</street>
<premise>285</premise>
<streetNumber>8</streetNumber>
<latitude>49.594418</latitude>
<longtitude>17.251347</longtitude>
<gpsStatus>OK</gpsStatus>
<coor>true</coor>
</address>
</benefit>
<benefit id="175">
<name>D-Sport</name>
<cardType>ISIC</cardType>
<cardType>ITIC</cardType>
<cardType>IYTC</cardType>
<cardType>SCHOLAR</cardType>
<web>www.dsport.eu</web>
<email>tesin.decko@seznam.cz</email>
<phone>553 034 232, 730 515 562</phone>
<address>
<city>Český Těšín</city>
<street>Jablunkovská</street>
<premise>2041</premise>
<streetNumber>38</streetNumber>
<latitude>49.7389</latitude>
<longtitude>18.619675</longtitude>
<gpsStatus>OK</gpsStatus>
<coor>true</coor>
</address>
</benefit>
<benefit id="176">
<name>Albi a.s.</name>
<cardType>EYCA</cardType>
<cardType>ISIC</cardType>
<cardType>ITIC</cardType>
<cardType>IYTC</cardType>
<cardType>SCHOLAR</cardType>
<cardType>SPHERE</cardType>
<web>www.albi.cz</web>
<email>hk.futurum@albi.cz</email>
<phone>495426072,733141930</phone>
<address>
<city>Hradec Kralove</city>
<street>Brněnská</street>
<premise>1825</premise>
<streetNumber>23A</streetNumber>
<latitude>50.197014</latitude>
<longtitude>15.848939</longtitude>
<gpsStatus>OK</gpsStatus>
<coor>true</coor>
</address>
</benefit>
<benefit id="177">
<name>D-Sport</name>
<cardType>ISIC</cardType>
<cardType>ITIC</cardType>
<cardType>IYTC</cardType>
<cardType>SCHOLAR</cardType>
<web>www.dsport.eu</web>
<email>most.decko@seznam.cz</email>
<phone>413 034 562, 730 515 564</phone>
<address>
<city>Most</city>
<street>Radniční</street>
<premise>3400</premise>
<streetNumber>###</streetNumber>
<latitude>50.50126</latitude>
<longtitude>13.639977</longtitude>
<gpsStatus>OK</gpsStatus>
<coor>true</coor>
</address>
</benefit>
<benefit id="178">
<name>Albi a.s.</name>
<cardType>EYCA</cardType>
<cardType>ISIC</cardType>
<cardType>ITIC</cardType>
<cardType>IYTC</cardType>
<cardType>SCHOLAR</cardType>
<web>www.albi.cz</web>
<email>ostrava.karolina@albi.cz</email>
<phone>596 155 089</phone>
<address>
<city>Ostrava</city>
<street>Jantarová</street>
<premise>###</premise>
<streetNumber>###</streetNumber>
<latitude>49.830704</latitude>
<longtitude>18.286716</longtitude>
<gpsStatus>OK</gpsStatus>
<coor>true</coor>
</address>
</benefit>
<benefit id="179">
<name>D-Sport</name>
<cardType>ISIC</cardType>
<cardType>ITIC</cardType>
<cardType>IYTC</cardType>
<cardType>SCHOLAR</cardType>
<web>www.dsport.eu</web>
<email>karvina1.decko@seznam.cz</email>
<phone>596 311 772, 730 515 561</phone>
<address>
<city>Karvina</city>
<street>Nádražní</street>
<premise>###</premise>
<streetNumber>###</streetNumber>
<latitude>49.85586</latitude>
<longtitude>18.528502</longtitude>
<gpsStatus>OK</gpsStatus>
<coor>true</coor>
</address>
</benefit>
<benefit id="180">
<name>D-Sport</name>
<cardType>ISIC</cardType>
<cardType>ITIC</cardType>
<cardType>IYTC</cardType>
<cardType>SCHOLAR</cardType>
<web>www.dsport.eu</web>
<email>ovafuturum.decko@seznam.cz</email>
<phone>596 636 281, 730 515 557</phone>
<address>
<city>Ostrava</city>
<street>Varenská</street>
<premise>3309</premise>
<streetNumber>50</streetNumber>
<latitude>49.833595</latitude>
<longtitude>18.26826</longtitude>
<gpsStatus>OK</gpsStatus>
<coor>true</coor>
</address>
</benefit>
<benefit id="181">
<name>Albi a.s.</name>
<cardType>EYCA</cardType>
<cardType>ISIC</cardType>
<cardType>ITIC</cardType>
<cardType>IYTC</cardType>
<cardType>SCHOLAR</cardType>
<web>www.albi.cz</web>
<email>praha.palladium.svether.kasa@albi.cz</email>
<phone>775 218 182</phone>
<address>
<city>Praha</city>
<street>náměstí Republiky</street>
<premise>1079</premise>
<streetNumber>1a</streetNumber>
<latitude>50.089005</latitude>
<longtitude>14.429174</longtitude>
<gpsStatus>OK</gpsStatus>
<coor>true</coor>
</address>
</benefit>
<benefit id="182">
<name>D-sport</name>
<cardType>ISIC</cardType>
<cardType>ITIC</cardType>
<cardType>IYTC</cardType>
<cardType>SCHOLAR</cardType>
<web>www.dsport.eu</web>
<email>jiri.salapatek@volny.cz</email>
<phone>596 125 782</phone>
<address>
<city>Ostrava</city>
<street>Poštovní</street>
<premise>###</premise>
<streetNumber>7</streetNumber>
<latitude>49.836216</latitude>
<longtitude>18.291079</longtitude>
<gpsStatus>OK</gpsStatus>
<coor>true</coor>
</address>
</benefit>
<benefit id="183">
<name>Salsa Café</name>
<cardType>ISIC</cardType>
<cardType>ITIC</cardType>
<cardType>IYTC</cardType>
<cardType>SCHOLAR</cardType>
<web>facebook.com/www.salsacafe.cz</web>
<email>info@salsacafe.cz</email>
<phone>608 117 571</phone>
<address>
<city>Praha</city>
<street>Jaselská</street>
<premise>###</premise>
<streetNumber>20</streetNumber>
<latitude>50.09904</latitude>
<longtitude>14.402656</longtitude>
<gpsStatus>OK</gpsStatus>
<coor>true</coor>
</address>
</benefit>
<benefit id="184">
<name>Neoluxor Books - Knihkupectví Laso</name>
<cardType>ISIC</cardType>
<cardType>ITIC</cardType>
<cardType>IYTC</cardType>
<cardType>SCHOLAR</cardType>
<web>www.neoluxor.cz</web>
<email>laso@neoluxorbooks.cz</email>
<phone>597 490 991</phone>
<address>
<city>Ostrava</city>
<street>Masarykovo náměstí</street>
<premise>3090</premise>
<streetNumber>15</streetNumber>
<latitude>49.836575</latitude>
<longtitude>18.292938</longtitude>
<gpsStatus>OK</gpsStatus>
<coor>true</coor>
</address>
</benefit>
<benefit id="185">
<name>Neoluxor Books - Knihkupectví Forum</name>
<cardType>ISIC</cardType>
<cardType>ITIC</cardType>
<cardType>IYTC</cardType>
<cardType>SCHOLAR</cardType>
<web>www.neoluxor.cz</web>
<email>forum@neoluxorbooks.cz</email>
<phone>487 919 941</phone>
<address>
<city>Liberec</city>
<street>nám. Soukenné</street>
<premise>669</premise>
<streetNumber>2A</streetNumber>
<latitude>50.765614</latitude>
<longtitude>15.056273</longtitude>
<gpsStatus>OK</gpsStatus>
<coor>true</coor>
</address>
</benefit>
<benefit id="186">
<name>Neoluxor Books - Knihkupectví DBK Budějovická</name>
<cardType>ISIC</cardType>
<cardType>ITIC</cardType>
<cardType>IYTC</cardType>
<cardType>SCHOLAR</cardType>
<cardType>SPHERE</cardType>
<web>www.neoluxor.cz</web>
<email>dbk@neoluxorbooks.cz</email>
<phone>296110450, 296110451</phone>
<address>
<city>Praha</city>
<street>Budějovická</street>
<premise>64</premise>
<streetNumber>5</streetNumber>
<latitude>50.04812</latitude>
<longtitude>14.444104</longtitude>
<gpsStatus>OK</gpsStatus>
<coor>true</coor>
</address>
</benefit>
<benefit id="187">
<name>Neoluxor Books - Knihkupectví Chomutovka</name>
<cardType>ISIC</cardType>
<cardType>ITIC</cardType>
<cardType>IYTC</cardType>
<cardType>SCHOLAR</cardType>
<web>www.neoluxor.cz</web>
<email>chomutovka@neoluxorbooks.cz</email>
<phone>416 419 921</phone>
<address>
<city>Chomutov</city>
<street>###</street>
<premise>###</premise>
<streetNumber>###</streetNumber>
<latitude>50.463497</latitude>
<longtitude>13.410737</longtitude>
<gpsStatus>OK</gpsStatus>
<coor>true</coor>
</address>
</benefit>
<benefit id="188">
<name>Neoluxor Books - Knihkupectví Starobrněnská</name>
<cardType>ISIC</cardType>
<cardType>ITIC</cardType>
<cardType>IYTC</cardType>
<cardType>SCHOLAR</cardType>
<web>www.neoluxor.cz</web>
<email>starobrnenska@neoluxorbooks.cz</email>
<phone>532 199 891</phone>
<address>
<city>Brno</city>
<street>Starobrněnská</street>
<premise>###</premise>
<streetNumber>###</streetNumber>
<latitude>49.192493</latitude>
<longtitude>16.607128</longtitude>
<gpsStatus>OK</gpsStatus>
<coor>true</coor>
</address>
</benefit>
<benefit id="189">
<name>Neoluxor Books - Knihkupectví u Černé Věže</name>
<cardType>ISIC</cardType>
<cardType>ITIC</cardType>
<cardType>IYTC</cardType>
<cardType>SCHOLAR</cardType>
<web>www.neoluxor.cz</web>
<email>ucerneveze@neoluxorbooks.cz</email>
<phone>389 058 910</phone>
<address>
<city>Ceske Budejovice</city>
<street>U Černé věže</street>
<premise>300</premise>
<streetNumber>15</streetNumber>
<latitude>48.976604</latitude>
<longtitude>14.475641</longtitude>
<gpsStatus>OK</gpsStatus>
<coor>true</coor>
</address>
</benefit>
<benefit id="190">
<name>Neoluxor Books - Knihkupectví Plaza Plzeň</name>
<cardType>ISIC</cardType>
<cardType>ITIC</cardType>
<cardType>IYTC</cardType>
<cardType>SCHOLAR</cardType>
<web>www.neoluxor.cz</web>
<email>plaza@neoluxorbooks.cz</email>
<phone>378 229 931</phone>
<address>
<city>Plzen</city>
<street>###</street>
<premise>###</premise>
<streetNumber>###</streetNumber>
<latitude>49.73843</latitude>
<longtitude>13.373637</longtitude>
<gpsStatus>OK</gpsStatus>
<coor>true</coor>
</address>
</benefit>
<benefit id="191">
<name>Neoluxor - Knihkupectví Futurum</name>
<cardType>ISIC</cardType>
<cardType>ITIC</cardType>
<cardType>IYTC</cardType>
<cardType>SCHOLAR</cardType>
<cardType>SPHERE</cardType>
<web>www.neoluxor.cz</web>
<email>futurum@neoluxor.cz</email>
<phone>498 501 110</phone>
<address>
<city>Hradec Kralove</city>
<street>Brněnská</street>
<premise>1825</premise>
<streetNumber>23A</streetNumber>
<latitude>50.197014</latitude>
<longtitude>15.848939</longtitude>
<gpsStatus>OK</gpsStatus>
<coor>true</coor>
</address>
</benefit>
<benefit id="192">
<name>Neoluxor Books - Knihkupectví Breda</name>
<cardType>ISIC</cardType>
<cardType>ITIC</cardType>
<cardType>IYTC</cardType>
<cardType>SCHOLAR</cardType>
<web>www.neoluxor.cz</web>
<email>breda@neoluxorbooks.cz</email>
<phone>558 889 821</phone>
<address>
<city>Opava</city>
<street>###</street>
<premise>###</premise>
<streetNumber>###</streetNumber>
<latitude>49.94066</latitude>
<longtitude>17.894798</longtitude>
<gpsStatus>OK</gpsStatus>
<coor>true</coor>
</address>
</benefit>
<benefit id="193">
<name>Neoluxor Books - Knihkupectví Nisa</name>
<cardType>ISIC</cardType>
<cardType>ITIC</cardType>
<cardType>IYTC</cardType>
<cardType>SCHOLAR</cardType>
<web>www.neoluxor.cz</web>
<email>nisa@neoluxorbooks.cz</email>
<phone>487 919 945</phone>
<address>
<city>Liberec</city>
<street>České mládeže</street>
<premise>456</premise>
<streetNumber>###</streetNumber>
<latitude>50.741474</latitude>
<longtitude>15.049085</longtitude>
<gpsStatus>OK</gpsStatus>
<coor>true</coor>
</address>
</benefit>
<benefit id="194">
<name>Neoluxor Books - Knihkupectví Mortiz</name>
<cardType>ISIC</cardType>
<cardType>ITIC</cardType>
<cardType>IYTC</cardType>
<cardType>SCHOLAR</cardType>
<web>www.neoluxor.cz</web>
<email>mortiz@neoluxorbooks.cz</email>
<phone>587 301 831</phone>
<address>
<city>Olomouc</city>
<street>###</street>
<premise>###</premise>
<streetNumber>###</streetNumber>
<latitude>49.593777</latitude>
<longtitude>17.25088</longtitude>
<gpsStatus>OK</gpsStatus>
<coor>true</coor>
</address>
</benefit>
<benefit id="195">
<name>Neoluxor Books - Knihkupectví Avion</name>
<cardType>ISIC</cardType>
<cardType>ITIC</cardType>
<cardType>IYTC</cardType>
<cardType>SCHOLAR</cardType>
<web>www.neoluxor.cz</web>
<email>avion@neoluxorbooks.cz</email>
<phone>532 199 896</phone>
<address>
<city>Brno</city>
<street>Skandinávská</street>
<premise>128</premise>
<streetNumber>2</streetNumber>
<latitude>49.157536</latitude>
<longtitude>16.627682</longtitude>
<gpsStatus>OK</gpsStatus>
<coor>true</coor>
</address>
</benefit>
<benefit id="196">
<name>KFC Plzeň Plaza</name>
<cardType>ISIC</cardType>
<web>www.kfc.cz</web>
<email>kfcplazaplzen@amrest.eu</email>
<phone>230 013 443</phone>
<address>
<city>Plzen</city>
<street>Radčická</street>
<premise>2861</premise>
<streetNumber>2</streetNumber>
<latitude>49.749638</latitude>
<longtitude>13.369561</longtitude>
<gpsStatus>OK</gpsStatus>
<coor>true</coor>
</address>
</benefit>
<benefit id="197">
<name>KFC Chomutov</name>
<cardType>ISIC</cardType>
<web>www.kfc.cz</web>
<email>kfcchomutov@amrest.eu</email>
<phone>235 013 496</phone>
<address>
<city>Otvice</city>
<street>Obchodní zóna</street>
<premise>###</premise>
<streetNumber>###</streetNumber>
<latitude>50.484932</latitude>
<longtitude>13.44435</longtitude>
<gpsStatus>OK</gpsStatus>
<coor>true</coor>
</address>
</benefit>
<benefit id="198">
<name>BANDI - Pánské obleky, Plzeň</name>
<cardType>ISIC</cardType>
<cardType>ITIC</cardType>
<cardType>IYTC</cardType>
<web>www.bandi.cz</web>
<email>info@bandi.cz</email>
<phone/>
<address>
<city>Plzen</city>
<street>Revoluční</street>
<premise>1104</premise>
<streetNumber>3</streetNumber>
<latitude>49.747684</latitude>
<longtitude>13.409027</longtitude>
<gpsStatus>OK</gpsStatus>
<coor>true</coor>
</address>
</benefit>
<benefit id="199">
<name>CK Kudrna</name>
<cardType>ISIC</cardType>
<cardType>ITIC</cardType>
<cardType>IYTC</cardType>
<cardType>SCHOLAR</cardType>
<web>www.kudrna.cz</web>
<email>ck@kudrna.cz</email>
<phone>542 216 764, 777 583 762</phone>
<address>
<city>Brno</city>
<street>Hněvkovského</street>
<premise>153</premise>
<streetNumber>75</streetNumber>
<latitude>49.16842</latitude>
<longtitude>16.628181</longtitude>
<gpsStatus>OK</gpsStatus>
<coor>true</coor>
</address>
</benefit>
<benefit id="200">
<name>Penzion Loreta</name>
<cardType>ISIC</cardType>
<cardType>ITIC</cardType>
<cardType>IYTC</cardType>
<cardType>SCHOLAR</cardType>
<web>www.penzionloreta.cz</web>
<email>Penzion.Loreta@seznam.cz</email>
<phone>731 165 231, 728 298 028</phone>
<address>
<city>Luhačovice</city>
<street>Holubyho</street>
<premise>448</premise>
<streetNumber>###</streetNumber>
<latitude>49.11414</latitude>
<longtitude>17.765888</longtitude>
<gpsStatus>OK</gpsStatus>
<coor>true</coor>
</address>
</benefit>
<benefit id="201">
<name>ALFA TAXI</name>
<cardType>ISIC</cardType>
<cardType>ITIC</cardType>
<cardType>IYTC</cardType>
<cardType>SCHOLAR</cardType>
<web>www.alfa.taxi.cz</web>
<email>alfataxiolomouc@seznam.cz</email>
<phone>800 15 05 05, 608 15 05 05</phone>
<address>
<city>Olomouc</city>
<street>8. května</street>
<premise>522</premise>
<streetNumber>5</streetNumber>
<latitude>49.595642</latitude>
<longtitude>17.248587</longtitude>
<gpsStatus>OK</gpsStatus>
<coor>true</coor>
</address>
</benefit>
<benefit id="202">
<name>Lékárna CLINICUM</name>
<cardType>ISIC</cardType>
<cardType>ITIC</cardType>
<cardType>IYTC</cardType>
<cardType>SCHOLAR</cardType>
<web>www.mediconas.cz</web>
<email/>
<phone/>
<address>
<city>Praha</city>
<street>Sokolovská</street>
<premise>810</premise>
<streetNumber>810/304</streetNumber>
<latitude>50.107735</latitude>
<longtitude>14.494099</longtitude>
<gpsStatus>OK</gpsStatus>
<coor>true</coor>
</address>
</benefit>
<benefit id="203">
<name>Spirit Restaurant - kongresové centrum</name>
<cardType>ISIC</cardType>
<cardType>ITIC</cardType>
<cardType>IYTC</cardType>
<cardType>SCHOLAR</cardType>
<web>www.spiritrestaurant.cz</web>
<email>spirit@spiritrestaurant.cz</email>
<phone>577 008 907, 725 111 575</phone>
<address>
<city>Zlin</city>
<street>nám. T. G. Masaryka</street>
<premise>5556</premise>
<streetNumber>###</streetNumber>
<latitude>49.223152</latitude>
<longtitude>17.664368</longtitude>
<gpsStatus>OK</gpsStatus>
<coor>true</coor>
</address>
</benefit>
<benefit id="204">
<name>Kavárna Kalypso</name>
<cardType>ISIC</cardType>
<cardType>ITIC</cardType>
<cardType>IYTC</cardType>
<cardType>SCHOLAR</cardType>
<web>www.kalypso-cafe.cz</web>
<email>info@kalypso-cafe.cz</email>
<phone>722 966 944</phone>
<address>
<city>Brno</city>
<street>Běhounská</street>
<premise>115</premise>
<streetNumber>4</streetNumber>
<latitude>49.19591</latitude>
<longtitude>16.609066</longtitude>
<gpsStatus>OK</gpsStatus>
<coor>true</coor>
</address>
</benefit>
<benefit id="205">
<name>RegioJet</name>
<cardType>ISIC</cardType>
<cardType>SCHOLAR</cardType>
<web>www.regiojet.cz</web>
<email>info@regiojet.cz</email>
<phone>841 101 101, 539 000 926</phone>
<address>
<city>Pardubice</city>
<street>náměstí Jana Pernera</street>
<premise>217</premise>
<streetNumber>###</streetNumber>
<latitude>50.032352</latitude>
<longtitude>15.756303</longtitude>
<gpsStatus>OK</gpsStatus>
<coor>true</coor>
</address>
</benefit>
<benefit id="206">
<name>RegioJet</name>
<cardType>ISIC</cardType>
<cardType>SCHOLAR</cardType>
<web>www.regiojet.cz</web>
<email>info@regiojet.cz</email>
<phone>841 101 101, 539 000 928</phone>
<address>
<city>Havířov</city>
<street>Železničářů</street>
<premise>1300</premise>
<streetNumber>2</streetNumber>
<latitude>49.791355</latitude>
<longtitude>18.412712</longtitude>
<gpsStatus>OK</gpsStatus>
<coor>true</coor>
</address>
</benefit>
<benefit id="207">
<name>RegioJet</name>
<cardType>ISIC</cardType>
<cardType>SCHOLAR</cardType>
<web>www.regiojet.cz</web>
<email>info@regiojet.cz</email>
<phone>841 101 101, 539 000 930</phone>
<address>
<city>Praha</city>
<street>Wilsonova</street>
<premise>300</premise>
<streetNumber>8</streetNumber>
<latitude>50.083263</latitude>
<longtitude>14.435078</longtitude>
<gpsStatus>OK</gpsStatus>
<coor>true</coor>
</address>
</benefit>
<benefit id="208">
<name>RegioJet</name>
<cardType>ISIC</cardType>
<cardType>SCHOLAR</cardType>
<web>www.regiojet.cz</web>
<email>info@regiojet.cz</email>
<phone>841 101 101, 539 000 931</phone>
<address>
<city>Olomouc</city>
<street>Jeremenkova</street>
<premise>103</premise>
<streetNumber>23</streetNumber>
<latitude>49.592896</latitude>
<longtitude>17.277857</longtitude>
<gpsStatus>OK</gpsStatus>
